{"type":"FeatureCollection", "features": [
{"type":"Feature","geometry":{"type":"Point","coordinates":[-37.06495666999996,-10.995758329999944]},"properties":{"nome_base":"NACIONAL GÁS BUTANO - BASE - ARACAJÚ/SE","munic":"ARACAJU","uf":"SE","razao_soci":"NACIONAL GAS BUTANO DISTRIBUIDORA LTDA","lat":-10.99575833,"long":-37.06495667,"cap":356,"id":30,"categoria":4,"parent_id":12,"name":"Base de Gás Liquefeito de Petróleo"}},
{"type":"Feature","geometry":{"type":"Point","coordinates":[-46.43018306999994,-23.43873254999994]},"properties":{"nome_base":"SERVGAS - BASE - GUARULHOS/SP","munic":"GUARULHOS","uf":"SP","razao_soci":"SERVGÁS DISTRIBUIDORA DE GÁS S. A.","lat":-23.43873255,"long":-46.43018307,"cap":343,"id":30,"categoria":4,"parent_id":12,"name":"Base de Gás Liquefeito de Petróleo"}},
{"type":"Feature","geometry":{"type":"Point","coordinates":[-47.83121332999997,-21.03769499999993]},"properties":{"nome_base":"COPAGAZ - BASE - JARDINÓPOLIS/SP","munic":"JARDINOPOLIS","uf":"SP","razao_soci":"COPAGAZ DISTRIBUIDORA DE GÁS S/A.","lat":-21.037695,"long":-47.83121333,"cap":349.88,"id":30,"categoria":4,"parent_id":12,"name":"Base de Gás Liquefeito de Petróleo"}},
{"type":"Feature","geometry":{"type":"Point","coordinates":[-63.91269999999997,-8.749676669999928]},"properties":{"nome_base":"AMAZONGÁS - BASE - PORTO VELHO/RO","munic":"PORTO VELHO","uf":"RO","razao_soci":"AMAZONGÁS DISTRIBUIDORA DE GÁS LIQUEFEITO DE PETRÓLEO LTDA.","lat":-8.74967667,"long":-63.9127,"cap":1560,"id":30,"categoria":4,"parent_id":12,"name":"Base de Gás Liquefeito de Petróleo"}},
{"type":"Feature","geometry":{"type":"Point","coordinates":[-36.38915999999995,-5.13414599999993]},"properties":{"nome_base":"NACIONAL GÁS BUTANO - BASE - GUAMARÉ/RN","munic":"GUAMARE","uf":"RN","razao_soci":"NACIONAL GAS BUTANO DISTRIBUIDORA LTDA","lat":-5.134146,"long":-36.38916,"cap":319,"id":30,"categoria":4,"parent_id":12,"name":"Base de Gás Liquefeito de Petróleo"}},
{"type":"Feature","geometry":{"type":"Point","coordinates":[-41.71262509999997,-22.29407397999995]},"properties":{"nome_base":"NACIONAL GÁS BUTANO - BASE - MACAÉ/RJ","munic":"MACAE","uf":"RJ","razao_soci":"NACIONAL GAS BUTANO DISTRIBUIDORA LTDA","lat":-22.29407398,"long":-41.7126251,"cap":163,"id":30,"categoria":4,"parent_id":12,"name":"Base de Gás Liquefeito de Petróleo"}},
{"type":"Feature","geometry":{"type":"Point","coordinates":[-51.21055999999999,-23.276119999999935]},"properties":{"nome_base":"SUPERGASBRAS -BASE- LONDRINA/PR","munic":"LONDRINA","uf":"PR","razao_soci":"SUPERGASBRAS ENERGIA LTDA","lat":-23.27612,"long":-51.21056,"cap":280.52,"id":30,"categoria":4,"parent_id":12,"name":"Base de Gás Liquefeito de Petróleo"}},
{"type":"Feature","geometry":{"type":"Point","coordinates":[-51.22157499999997,-23.279434999999978]},"properties":{"nome_base":"LIQUÍGAS - BASE - LONDRINA/PR","munic":"LONDRINA","uf":"PR","razao_soci":"LIQUIGÁS DISTRIBUIDORA S.A.","lat":-23.279435,"long":-51.221575,"cap":56.95,"id":30,"categoria":4,"parent_id":12,"name":"Base de Gás Liquefeito de Petróleo"}},
{"type":"Feature","geometry":{"type":"Point","coordinates":[-48.48770091999995,-1.4043633699999418]},"properties":{"nome_base":"NACIONAL - BASE - BELÉM/PA","munic":"BELEM","uf":"PA","razao_soci":"NACIONAL GAS BUTANO DISTRIBUIDORA LTDA","lat":-1.40436337,"long":-48.48770092,"cap":1897,"id":30,"categoria":4,"parent_id":12,"name":"Base de Gás Liquefeito de Petróleo"}},
{"type":"Feature","geometry":{"type":"Point","coordinates":[-50.19634666999997,-25.090169999999944]},"properties":{"nome_base":"LIQUÍGAS - BASE -  PONTA GROSSA/PR","munic":"PONTA GROSSA","uf":"PR","razao_soci":"LIQUIGÁS DISTRIBUIDORA S.A.","lat":-25.09017,"long":-50.19634667,"cap":57.63,"id":30,"categoria":4,"parent_id":12,"name":"Base de Gás Liquefeito de Petróleo"}},
{"type":"Feature","geometry":{"type":"Point","coordinates":[-49.36103884999994,-25.55658767999995]},"properties":{"nome_base":"ULTRAGAZ- BASE - ARAUCÁRIA/PR","munic":"ARAUCARIA","uf":"PR","razao_soci":"COMPANHIA ULTRAGAZ S A","lat":-25.55658768,"long":-49.36103885,"cap":232,"id":30,"categoria":4,"parent_id":12,"name":"Base de Gás Liquefeito de Petróleo"}},
{"type":"Feature","geometry":{"type":"Point","coordinates":[-40.23982872999994,-20.192899659999966]},"properties":{"nome_base":"NACIONAL GÁS BUTANO - BASE - SERRA/ES","munic":"SERRA","uf":"ES","razao_soci":"NACIONAL GAS BUTANO DISTRIBUIDORA LTDA","lat":-20.19289966,"long":-40.23982873,"cap":176,"id":30,"categoria":4,"parent_id":12,"name":"Base de Gás Liquefeito de Petróleo"}},
{"type":"Feature","geometry":{"type":"Point","coordinates":[-47.98019666999994,-15.800656669999967]},"properties":{"nome_base":"LIQUIGAS - BASE - BRASILIA/DF","munic":"BRASILIA","uf":"DF","razao_soci":"LIQUIGÁS DISTRIBUIDORA S.A.","lat":-15.80065667,"long":-47.98019667,"cap":226.56,"id":30,"categoria":4,"parent_id":12,"name":"Base de Gás Liquefeito de Petróleo"}},
{"type":"Feature","geometry":{"type":"Point","coordinates":[-38.586224999999956,-12.708973329999935]},"properties":{"nome_base":"SUPERGASBRAS -BASE- SÃO FRANCISCO DO CONDE/BA","munic":"SAO FRANCISCO DO CONDE","uf":"BA","razao_soci":"SUPERGASBRAS ENERGIA LTDA","lat":-12.70897333,"long":-38.586225,"cap":159.24,"id":30,"categoria":4,"parent_id":12,"name":"Base de Gás Liquefeito de Petróleo"}},
{"type":"Feature","geometry":{"type":"Point","coordinates":[-40.099887999999964,-13.841387999999938]},"properties":{"nome_base":"NACIONAL GÁS BUTANO - BASE - JEQUIÉ/BA","munic":"JEQUIE","uf":"BA","razao_soci":"NACIONAL GAS BUTANO DISTRIBUIDORA LTDA","lat":-13.841388,"long":-40.099888,"cap":177,"id":30,"categoria":4,"parent_id":12,"name":"Base de Gás Liquefeito de Petróleo"}},
{"type":"Feature","geometry":{"type":"Point","coordinates":[-39.307285999999976,-14.82104499999997]},"properties":{"nome_base":"NACIONAL GÁS BUTANO - BASE - ITABUNA/BA","munic":"ITABUNA","uf":"BA","razao_soci":"NACIONAL GAS BUTANO DISTRIBUIDORA LTDA","lat":-14.821045,"long":-39.307286,"cap":174,"id":30,"categoria":4,"parent_id":12,"name":"Base de Gás Liquefeito de Petróleo"}},
{"type":"Feature","geometry":{"type":"Point","coordinates":[-46.35554166999998,-23.927724999999953]},"properties":{"nome_base":"ULTRAGAZ - BASE - SANTOS/SP","munic":"SANTOS","uf":"SP","razao_soci":"COMPANHIA ULTRAGAZ S A","lat":-23.927725,"long":-46.35554167,"cap":2111.31,"id":30,"categoria":4,"parent_id":12,"name":"Base de Gás Liquefeito de Petróleo"}},
{"type":"Feature","geometry":{"type":"Point","coordinates":[-47.14064999999994,-22.719088329999977]},"properties":{"nome_base":"GASBALL - BASE - PAULÍNIA/SP","munic":"PAULINIA","uf":"SP","razao_soci":"GASBALL ARMAZENADORA E DISTRIBUIDORA LTDA.","lat":-22.71908833,"long":-47.14065,"cap":348,"id":30,"categoria":4,"parent_id":12,"name":"Base de Gás Liquefeito de Petróleo"}},
{"type":"Feature","geometry":{"type":"Point","coordinates":[-47.13655666999995,-22.714161669999953]},"properties":{"nome_base":"VIDA E ENERGIA - BASE - PAULÍNIA/SP","munic":"PAULINIA","uf":"SP","razao_soci":"VIDA & ENERGIA DISTRIBUIDORA DE GÁS LIQUEFEITO DE PETRÓLEO LTDA","lat":-22.71416167,"long":-47.13655667,"cap":329.46,"id":30,"categoria":4,"parent_id":12,"name":"Base de Gás Liquefeito de Petróleo"}},
{"type":"Feature","geometry":{"type":"Point","coordinates":[-47.14188666999996,-22.716164999999933]},"properties":{"nome_base":"SUPERGASBRAS- BASE- PAULÍNIA/SP","munic":"PAULINIA","uf":"SP","razao_soci":"SUPERGASBRAS ENERGIA LTDA","lat":-22.716165,"long":-47.14188667,"cap":1093.81,"id":30,"categoria":4,"parent_id":12,"name":"Base de Gás Liquefeito de Petróleo"}},
{"type":"Feature","geometry":{"type":"Point","coordinates":[-47.546269999999936,-22.35990099999998]},"properties":{"nome_base":"MASTERGAS- BASE- RIO CLARO/SP","munic":"RIO CLARO","uf":"SP","razao_soci":"MASTERGAS COMÉRCIO, TRANSPORTE E DISTRIBUIÇÃO DE GLP RIO CLARO LTDA.","lat":-22.359901,"long":-47.54627,"cap":40,"id":30,"categoria":4,"parent_id":12,"name":"Base de Gás Liquefeito de Petróleo"}},
{"type":"Feature","geometry":{"type":"Point","coordinates":[-59.95381666999998,-3.1424416699999256]},"properties":{"nome_base":"FOGAS - BASE - MANAUS/AM","munic":"MANAUS","uf":"AM","razao_soci":"SOCIEDADE FOGAS LTDA","lat":-3.14244167,"long":-59.95381667,"cap":1440,"id":30,"categoria":4,"parent_id":12,"name":"Base de Gás Liquefeito de Petróleo"}},
{"type":"Feature","geometry":{"type":"Point","coordinates":[-48.67739999999998,-27.655734999999936]},"properties":{"nome_base":"ULTRAGAZ - BASE - PALHOCA/SC","munic":"PALHOCA","uf":"SC","razao_soci":"COMPANHIA ULTRAGAZ S A","lat":-27.655735,"long":-48.6774,"cap":58.66,"id":30,"categoria":4,"parent_id":12,"name":"Base de Gás Liquefeito de Petróleo"}},
{"type":"Feature","geometry":{"type":"Point","coordinates":[-35.281338999999946,-5.725345999999945]},"properties":{"nome_base":"NACIONAL GÁS BUTANO - BASE - NATAL/RN","munic":"NATAL","uf":"RN","razao_soci":"NACIONAL GAS BUTANO DISTRIBUIDORA LTDA","lat":-5.725346,"long":-35.281339,"cap":95,"id":30,"categoria":4,"parent_id":12,"name":"Base de Gás Liquefeito de Petróleo"}},
{"type":"Feature","geometry":{"type":"Point","coordinates":[-51.16265999999996,-29.87700332999998]},"properties":{"nome_base":"ULTRAGAZ - BASE - CANOAS/RS","munic":"CANOAS","uf":"RS","razao_soci":"COMPANHIA ULTRAGAZ S A","lat":-29.87700333,"long":-51.16266,"cap":576.6,"id":30,"categoria":4,"parent_id":12,"name":"Base de Gás Liquefeito de Petróleo"}},
{"type":"Feature","geometry":{"type":"Point","coordinates":[-51.19459999999998,-29.136154999999974]},"properties":{"nome_base":"COMPANHIA ULTRAGAZ S.A.","munic":"CAXIAS DO SUL","uf":"RS","razao_soci":"COMPANHIA ULTRAGAZ S A","lat":-29.136155,"long":-51.1946,"cap":115.63,"id":30,"categoria":4,"parent_id":12,"name":"Base de Gás Liquefeito de Petróleo"}},
{"type":"Feature","geometry":{"type":"Point","coordinates":[-50.54567499999996,-27.314701669999977]},"properties":{"nome_base":"SUPERGASBRAS - BASE - CURITIBANOS/SC","munic":"CURITIBANOS","uf":"SC","razao_soci":"SUPERGASBRAS ENERGIA LTDA","lat":-27.31470167,"long":-50.545675,"cap":54.62,"id":30,"categoria":4,"parent_id":12,"name":"Base de Gás Liquefeito de Petróleo"}},
{"type":"Feature","geometry":{"type":"Point","coordinates":[-43.279908509999984,-22.709921769999937]},"properties":{"nome_base":"SUPERGASBRAS - BASE - DUQUE DE CAXIAS/RJ","munic":"DUQUE DE CAXIAS","uf":"RJ","razao_soci":"SUPERGASBRAS ENERGIA LTDA","lat":-22.70992177,"long":-43.27990851,"cap":1318.46,"id":30,"categoria":4,"parent_id":12,"name":"Base de Gás Liquefeito de Petróleo"}},
{"type":"Feature","geometry":{"type":"Point","coordinates":[-43.27341999999993,-22.71004666999994]},"properties":{"nome_base":"COPAGAZ - BASE - DUQUE DE CAXIAS/RJ","munic":"DUQUE DE CAXIAS","uf":"RJ","razao_soci":"COPAGAZ DISTRIBUIDORA DE GÁS S/A.","lat":-22.71004667,"long":-43.27342,"cap":357.55,"id":30,"categoria":4,"parent_id":12,"name":"Base de Gás Liquefeito de Petróleo"}},
{"type":"Feature","geometry":{"type":"Point","coordinates":[-51.44059832999994,-23.52204999999998]},"properties":{"nome_base":"NACIONAL GAS BUTANO - BASE -  APUCARANA - PR","munic":"APUCARANA","uf":"PR","razao_soci":"NACIONAL GAS BUTANO DISTRIBUIDORA LTDA","lat":-23.52205,"long":-51.44059833,"cap":118,"id":30,"categoria":4,"parent_id":12,"name":"Base de Gás Liquefeito de Petróleo"}},
{"type":"Feature","geometry":{"type":"Point","coordinates":[-51.220636669999976,-23.27813666999998]},"properties":{"nome_base":"ULTRAGAZ - BASE - LONDRINA/PR","munic":"LONDRINA","uf":"PR","razao_soci":"COMPANHIA ULTRAGAZ S A","lat":-23.27813667,"long":-51.22063667,"cap":117,"id":30,"categoria":4,"parent_id":12,"name":"Base de Gás Liquefeito de Petróleo"}},
{"type":"Feature","geometry":{"type":"Point","coordinates":[-48.485663329999966,-1.4064783299999704]},"properties":{"nome_base":"LIQUÍGAS - BASE - BELÉM/PARA","munic":"BELEM","uf":"PA","razao_soci":"LIQUIGÁS DISTRIBUIDORA S.A.","lat":-1.40647833,"long":-48.48566333,"cap":1067.93,"id":30,"categoria":4,"parent_id":12,"name":"Base de Gás Liquefeito de Petróleo"}},
{"type":"Feature","geometry":{"type":"Point","coordinates":[-53.39384332999998,-24.929978329999983]},"properties":{"nome_base":"ULTRAGAZ - BASE - CASCAVEL/PR","munic":"CASCAVEL","uf":"PR","razao_soci":"COMPANHIA ULTRAGAZ S A","lat":-24.92997833,"long":-53.39384333,"cap":117.1,"id":30,"categoria":4,"parent_id":12,"name":"Base de Gás Liquefeito de Petróleo"}},
{"type":"Feature","geometry":{"type":"Point","coordinates":[-34.97696018999994,-8.395651099999952]},"properties":{"nome_base":"MINASGÁS- BASE- IPOJUCA/PE","munic":"IPOJUCA","uf":"PE","razao_soci":"MINASGAS S/A INDUSTRIA E COMERCIO","lat":-8.3956511,"long":-34.97696019,"cap":416.53,"id":30,"categoria":4,"parent_id":12,"name":"Base de Gás Liquefeito de Petróleo"}},
{"type":"Feature","geometry":{"type":"Point","coordinates":[-34.97586990999997,-8.395470269999976]},"properties":{"nome_base":"BAHIANA - BASE - IPOJUCA/PE","munic":"IPOJUCA","uf":"PE","razao_soci":"BAHIANA DISTRIBUIDORA DE GÁS LTDA","lat":-8.39547027,"long":-34.97586991,"cap":500,"id":30,"categoria":4,"parent_id":12,"name":"Base de Gás Liquefeito de Petróleo"}},
{"type":"Feature","geometry":{"type":"Point","coordinates":[-49.61369499999995,-25.574078329999963]},"properties":{"nome_base":"GAS PONTO COM - BASE - BALSA NOVA/PR","munic":"BALSA NOVA","uf":"PR","razao_soci":"GÁS PONTO COM DISTRIBUIDORA DE GÁS S.A.","lat":-25.57407833,"long":-49.613695,"cap":60,"id":30,"categoria":4,"parent_id":12,"name":"Base de Gás Liquefeito de Petróleo"}},
{"type":"Feature","geometry":{"type":"Point","coordinates":[-44.100957869999945,-19.952427099999966]},"properties":{"nome_base":"LIQUÍGAS - BASE - BETIM/MG","munic":"BETIM","uf":"MG","razao_soci":"LIQUIGÁS DISTRIBUIDORA S.A.","lat":-19.9524271,"long":-44.10095787,"cap":700.35,"id":30,"categoria":4,"parent_id":12,"name":"Base de Gás Liquefeito de Petróleo"}},
{"type":"Feature","geometry":{"type":"Point","coordinates":[-44.34235647999998,-2.5584725799999433]},"properties":{"nome_base":"LIQUÍGAS - BASE - SÃO LUIS/MA","munic":"SAO LUIS","uf":"MA","razao_soci":"LIQUIGÁS DISTRIBUIDORA S.A.","lat":-2.55847258,"long":-44.34235648,"cap":1220.24,"id":30,"categoria":4,"parent_id":12,"name":"Base de Gás Liquefeito de Petróleo"}},
{"type":"Feature","geometry":{"type":"Point","coordinates":[-40.23945932999993,-20.194533129999968]},"properties":{"nome_base":"SUPERGASBRAS- BASE- SERRA/ES","munic":"SERRA","uf":"ES","razao_soci":"SUPERGASBRAS ENERGIA LTDA","lat":-20.19453313,"long":-40.23945933,"cap":452.69,"id":30,"categoria":4,"parent_id":12,"name":"Base de Gás Liquefeito de Petróleo"}},
{"type":"Feature","geometry":{"type":"Point","coordinates":[-40.49161332999995,-9.465678329999946]},"properties":{"nome_base":"BAHIANA - BASE - JUAZEIRO/BA","munic":"JUAZEIRO","uf":"BA","razao_soci":"BAHIANA DISTRIBUIDORA DE GÁS LTDA","lat":-9.46567833,"long":-40.49161333,"cap":175.2,"id":30,"categoria":4,"parent_id":12,"name":"Base de Gás Liquefeito de Petróleo"}},
{"type":"Feature","geometry":{"type":"Point","coordinates":[-38.62351332999998,-3.7437016699999504]},"properties":{"nome_base":"BAHIANA - BASE - CAUCAIA/CE","munic":"CAUCAIA","uf":"CE","razao_soci":"BAHIANA DISTRIBUIDORA DE GÁS LTDA","lat":-3.74370167,"long":-38.62351333,"cap":402.5,"id":30,"categoria":4,"parent_id":12,"name":"Base de Gás Liquefeito de Petróleo"}},
{"type":"Feature","geometry":{"type":"Point","coordinates":[-45.80995138999998,-23.183575049999945]},"properties":{"nome_base":"ULTRAGAZ - BASE - SÃO JOSÉ DOS CAMPOS/SP II","munic":"SAO JOSE DOS CAMPOS","uf":"SP","razao_soci":"COMPANHIA ULTRAGAZ S A","lat":-23.18357505,"long":-45.80995139,"cap":600.53,"id":30,"categoria":4,"parent_id":12,"name":"Base de Gás Liquefeito de Petróleo"}},
{"type":"Feature","geometry":{"type":"Point","coordinates":[-46.411571669999944,-23.95099166999995]},"properties":{"nome_base":"CONSIGAZ - BASE - SÃO VICENTE/SP","munic":"SAO VICENTE","uf":"SP","razao_soci":"CONSIGAZ DISTRIBUIDORA DE GÁS LTDA.","lat":-23.95099167,"long":-46.41157167,"cap":48,"id":30,"categoria":4,"parent_id":12,"name":"Base de Gás Liquefeito de Petróleo"}},
{"type":"Feature","geometry":{"type":"Point","coordinates":[-47.13900332999998,-22.718749999999943]},"properties":{"nome_base":"CONSIGAZ - BASE - PAULINIA/SP","munic":"PAULINIA","uf":"SP","razao_soci":"CONSIGAZ DISTRIBUIDORA DE GÁS LTDA.","lat":-22.71875,"long":-47.13900333,"cap":360,"id":30,"categoria":4,"parent_id":12,"name":"Base de Gás Liquefeito de Petróleo"}},
{"type":"Feature","geometry":{"type":"Point","coordinates":[-47.877628329999936,-21.144921669999974]},"properties":{"nome_base":"SUPERGASBRAS- BASE- RIBEIRÃO PRETO/SP","munic":"RIBEIRAO PRETO","uf":"SP","razao_soci":"SUPERGASBRAS ENERGIA LTDA","lat":-21.14492167,"long":-47.87762833,"cap":274.88,"id":30,"categoria":4,"parent_id":12,"name":"Base de Gás Liquefeito de Petróleo"}},
{"type":"Feature","geometry":{"type":"Point","coordinates":[-37.09995999999995,-10.906114999999943]},"properties":{"nome_base":"BAHIANA - BASE - ARACAJU/SE","munic":"ARACAJU","uf":"SE","razao_soci":"BAHIANA DISTRIBUIDORA DE GÁS LTDA","lat":-10.906115,"long":-37.09996,"cap":291.5,"id":30,"categoria":4,"parent_id":12,"name":"Base de Gás Liquefeito de Petróleo"}},
{"type":"Feature","geometry":{"type":"Point","coordinates":[-46.47816499999993,-23.658469999999966]},"properties":{"nome_base":"LIQUÍGAS - BASE - MAUÁ/SP","munic":"MAUA","uf":"SP","razao_soci":"LIQUIGÁS DISTRIBUIDORA S.A.","lat":-23.65847,"long":-46.478165,"cap":1085.94,"id":30,"categoria":4,"parent_id":12,"name":"Base de Gás Liquefeito de Petróleo"}},
{"type":"Feature","geometry":{"type":"Point","coordinates":[-46.47144192999997,-23.65141172999995]},"properties":{"nome_base":"NACIONAL GÁS BUTANO - BASE - MAUÁ/SP","munic":"MAUA","uf":"SP","razao_soci":"NACIONAL GAS BUTANO DISTRIBUIDORA LTDA","lat":-23.65141173,"long":-46.47144193,"cap":522,"id":30,"categoria":4,"parent_id":12,"name":"Base de Gás Liquefeito de Petróleo"}},
{"type":"Feature","geometry":{"type":"Point","coordinates":[-46.477086429999986,-23.65902910999995]},"properties":{"nome_base":"SUPERGASBRAS - BASE - MAUÁ/SP","munic":"MAUA","uf":"SP","razao_soci":"SUPERGASBRAS ENERGIA LTDA","lat":-23.65902911,"long":-46.47708643,"cap":2024.89,"id":30,"categoria":4,"parent_id":12,"name":"Base de Gás Liquefeito de Petróleo"}},
{"type":"Feature","geometry":{"type":"Point","coordinates":[-49.104214999999954,-22.293321669999955]},"properties":{"nome_base":"LIQUÍGAS - BASE - BAURU/SP","munic":"BAURU","uf":"SP","razao_soci":"LIQUIGÁS DISTRIBUIDORA S.A.","lat":-22.29332167,"long":-49.104215,"cap":57.05,"id":30,"categoria":4,"parent_id":12,"name":"Base de Gás Liquefeito de Petróleo"}},
{"type":"Feature","geometry":{"type":"Point","coordinates":[-35.28005099999996,-5.725268999999969]},"properties":{"nome_base":"LIQUÍGAS - BASE - NATAL/RN","munic":"NATAL","uf":"RN","razao_soci":"LIQUIGÁS DISTRIBUIDORA S.A.","lat":-5.725269,"long":-35.280051,"cap":588.46,"id":30,"categoria":4,"parent_id":12,"name":"Base de Gás Liquefeito de Petróleo"}},
{"type":"Feature","geometry":{"type":"Point","coordinates":[-48.76191666999995,-26.891376669999943]},"properties":{"nome_base":"SUPERGASBRAS - BASE- ITAJAÍ/SC","munic":"ITAJAI","uf":"SC","razao_soci":"SUPERGASBRAS ENERGIA LTDA","lat":-26.89137667,"long":-48.76191667,"cap":181.83,"id":30,"categoria":4,"parent_id":12,"name":"Base de Gás Liquefeito de Petróleo"}},
{"type":"Feature","geometry":{"type":"Point","coordinates":[-43.27476276999994,-22.71243476999996]},"properties":{"nome_base":"NACIONAL GÁS BUTANO - BASE - DUQUE DE CAXIAS /RJ","munic":"DUQUE DE CAXIAS","uf":"RJ","razao_soci":"NACIONAL GAS BUTANO DISTRIBUIDORA LTDA","lat":-22.71243477,"long":-43.27476277,"cap":919,"id":30,"categoria":4,"parent_id":12,"name":"Base de Gás Liquefeito de Petróleo"}},
{"type":"Feature","geometry":{"type":"Point","coordinates":[-48.14853666999994,-21.811861669999928]},"properties":{"nome_base":"ULTRAGAZ - BASE - ARARAQUARA/SP","munic":"ARARAQUARA","uf":"SP","razao_soci":"COMPANHIA ULTRAGAZ S A","lat":-21.81186167,"long":-48.14853667,"cap":56,"id":30,"categoria":4,"parent_id":12,"name":"Base de Gás Liquefeito de Petróleo"}},
{"type":"Feature","geometry":{"type":"Point","coordinates":[-52.473976669999956,-28.225451669999984]},"properties":{"nome_base":"SUPERGASBRAS -BASE- PASSO FUNDO/ RS","munic":"PASSO FUNDO","uf":"RS","razao_soci":"SUPERGASBRAS ENERGIA LTDA","lat":-28.22545167,"long":-52.47397667,"cap":51.61,"id":30,"categoria":4,"parent_id":12,"name":"Base de Gás Liquefeito de Petróleo"}},
{"type":"Feature","geometry":{"type":"Point","coordinates":[-53.74100666999993,-29.689529999999934]},"properties":{"nome_base":"LIQUÍGAS - BASE - SANTA MARIA/RS","munic":"SANTA MARIA","uf":"RS","razao_soci":"LIQUIGÁS DISTRIBUIDORA S.A.","lat":-29.68953,"long":-53.74100667,"cap":117.93,"id":30,"categoria":4,"parent_id":12,"name":"Base de Gás Liquefeito de Petróleo"}},
{"type":"Feature","geometry":{"type":"Point","coordinates":[-48.29604666999995,-18.86635332999998]},"properties":{"nome_base":"SUPERGASBRAS- BASE- UBERLANDIA/MG","munic":"UBERLANDIA","uf":"MG","razao_soci":"SUPERGASBRAS ENERGIA LTDA","lat":-18.86635333,"long":-48.29604667,"cap":215.9,"id":30,"categoria":4,"parent_id":12,"name":"Base de Gás Liquefeito de Petróleo"}},
{"type":"Feature","geometry":{"type":"Point","coordinates":[-34.97450052999994,-8.395065279999926]},"properties":{"nome_base":"LIQUÍGAS - BASE - IPOJUCA/PE","munic":"IPOJUCA","uf":"PE","razao_soci":"LIQUIGÁS DISTRIBUIDORA S.A.","lat":-8.39506528,"long":-34.97450053,"cap":711.18,"id":30,"categoria":4,"parent_id":12,"name":"Base de Gás Liquefeito de Petróleo"}},
{"type":"Feature","geometry":{"type":"Point","coordinates":[-44.09852878999993,-19.953531759999976]},"properties":{"nome_base":"NACIONAL GÁS BUTANO - BASE - BETIM/MG","munic":"BETIM","uf":"MG","razao_soci":"NACIONAL GAS BUTANO DISTRIBUIDORA LTDA","lat":-19.95353176,"long":-44.09852879,"cap":510,"id":30,"categoria":4,"parent_id":12,"name":"Base de Gás Liquefeito de Petróleo"}},
{"type":"Feature","geometry":{"type":"Point","coordinates":[-47.47266351999997,-5.483174879999979]},"properties":{"nome_base":"NACIONAL - BASE - IMPERATRIZ/MA","munic":"IMPERATRIZ","uf":"MA","razao_soci":"NACIONAL GAS BUTANO DISTRIBUIDORA LTDA","lat":-5.48317488,"long":-47.47266352,"cap":236,"id":30,"categoria":4,"parent_id":12,"name":"Base de Gás Liquefeito de Petróleo"}},
{"type":"Feature","geometry":{"type":"Point","coordinates":[-49.110496669999975,-16.70425666999995]},"properties":{"nome_base":"COMPANHIA ULTRAGAZ S.A.","munic":"SENADOR CANEDO","uf":"GO","razao_soci":"COMPANHIA ULTRAGAZ S A","lat":-16.70425667,"long":-49.11049667,"cap":705,"id":30,"categoria":4,"parent_id":12,"name":"Base de Gás Liquefeito de Petróleo"}},
{"type":"Feature","geometry":{"type":"Point","coordinates":[-49.11111166999996,-16.70431832999998]},"properties":{"nome_base":"GASBALL - BASE - SENADOR CANEDO/GO","munic":"SENADOR CANEDO","uf":"GO","razao_soci":"GASBALL ARMAZENADORA E DISTRIBUIDORA LTDA.","lat":-16.70431833,"long":-49.11111167,"cap":240,"id":30,"categoria":4,"parent_id":12,"name":"Base de Gás Liquefeito de Petróleo"}},
{"type":"Feature","geometry":{"type":"Point","coordinates":[-38.45314499999995,-12.909171669999978]},"properties":{"nome_base":"NACIONAL GÁS BUTANO - BASE -  SALVADOR/BA","munic":"SALVADOR","uf":"BA","razao_soci":"NACIONAL GAS BUTANO DISTRIBUIDORA LTDA","lat":-12.90917167,"long":-38.453145,"cap":177,"id":30,"categoria":4,"parent_id":12,"name":"Base de Gás Liquefeito de Petróleo"}},
{"type":"Feature","geometry":{"type":"Point","coordinates":[-40.492249999999956,-9.464206669999953]},"properties":{"nome_base":"NACIONAL GÁS BUTANO - BASE - JUAZEIRO/BA","munic":"JUAZEIRO","uf":"BA","razao_soci":"NACIONAL GAS BUTANO DISTRIBUIDORA LTDA","lat":-9.46420667,"long":-40.49225,"cap":177,"id":30,"categoria":4,"parent_id":12,"name":"Base de Gás Liquefeito de Petróleo"}},
{"type":"Feature","geometry":{"type":"Point","coordinates":[-40.10854643999994,-13.840709539999978]},"properties":{"nome_base":"SUPERGASBRAS - BASE - JEQUIÉ/BA","munic":"JEQUIE","uf":"BA","razao_soci":"SUPERGASBRAS ENERGIA LTDA","lat":-13.84070954,"long":-40.10854644,"cap":471.29,"id":30,"categoria":4,"parent_id":12,"name":"Base de Gás Liquefeito de Petróleo"}},
{"type":"Feature","geometry":{"type":"Point","coordinates":[-45.811353329999974,-23.184308329999965]},"properties":{"nome_base":"COPAGAZ - BASE - SÃO JOSÉ DOS CAMPOS/SP","munic":"SAO JOSE DOS CAMPOS","uf":"SP","razao_soci":"COPAGAZ DISTRIBUIDORA DE GÁS S/A.","lat":-23.18430833,"long":-45.81135333,"cap":231.4,"id":30,"categoria":4,"parent_id":12,"name":"Base de Gás Liquefeito de Petróleo"}},
{"type":"Feature","geometry":{"type":"Point","coordinates":[-47.400745539999946,-23.427139169999975]},"properties":{"nome_base":"COMPANHIA ULTRAGAZ S.A.","munic":"SOROCABA","uf":"SP","razao_soci":"COMPANHIA ULTRAGAZ S A","lat":-23.42713917,"long":-47.40074554,"cap":231.27,"id":30,"categoria":4,"parent_id":12,"name":"Base de Gás Liquefeito de Petróleo"}},
{"type":"Feature","geometry":{"type":"Point","coordinates":[-47.87991499999998,-21.146514999999965]},"properties":{"nome_base":"ULTRAGAZ - BASE - RIBEIRÃO PRETO/SP","munic":"RIBEIRAO PRETO","uf":"SP","razao_soci":"COMPANHIA ULTRAGAZ S A","lat":-21.146515,"long":-47.879915,"cap":349,"id":30,"categoria":4,"parent_id":12,"name":"Base de Gás Liquefeito de Petróleo"}},
{"type":"Feature","geometry":{"type":"Point","coordinates":[-51.17079166999997,-29.876584999999977]},"properties":{"nome_base":"NACIONAL GÁS BUTANO - BASE - CANOAS/RS","munic":"CANOAS","uf":"RS","razao_soci":"NACIONAL GAS BUTANO DISTRIBUIDORA LTDA","lat":-29.876585,"long":-51.17079167,"cap":492,"id":30,"categoria":4,"parent_id":12,"name":"Base de Gás Liquefeito de Petróleo"}},
{"type":"Feature","geometry":{"type":"Point","coordinates":[-43.27079386999998,-22.712400999999943]},"properties":{"nome_base":"GLP GAS - BASE DUQUE DE CAXIAS","munic":"DUQUE DE CAXIAS","uf":"RJ","razao_soci":"GLP GAS DISTRIBUIDORA DE GAS LTDA.","lat":-22.712401,"long":-43.27079387,"cap":384,"id":30,"categoria":4,"parent_id":12,"name":"Base de Gás Liquefeito de Petróleo"}},
{"type":"Feature","geometry":{"type":"Point","coordinates":[-43.284009949999984,-22.70995253999996]},"properties":{"nome_base":"ULTRAGAZ - BASE - DUQUE DE CAXIAS/RJ","munic":"DUQUE DE CAXIAS","uf":"RJ","razao_soci":"COMPANHIA ULTRAGAZ S A","lat":-22.70995254,"long":-43.28400995,"cap":875,"id":30,"categoria":4,"parent_id":12,"name":"Base de Gás Liquefeito de Petróleo"}},
{"type":"Feature","geometry":{"type":"Point","coordinates":[-48.484617739999976,-1.4058591199999455]},"properties":{"nome_base":"SUPERGASBRAS- BASE- BELÉM/PA","munic":"BELEM","uf":"PA","razao_soci":"SUPERGASBRAS ENERGIA LTDA","lat":-1.40585912,"long":-48.48461774,"cap":646.97,"id":30,"categoria":4,"parent_id":12,"name":"Base de Gás Liquefeito de Petróleo"}},
{"type":"Feature","geometry":{"type":"Point","coordinates":[-56.01022999999998,-15.646781669999939]},"properties":{"nome_base":"COPAGAZ - BASE - CUIABÁ/MT","munic":"CUIABA","uf":"MT","razao_soci":"COPAGAZ DISTRIBUIDORA DE GÁS S/A.","lat":-15.64678167,"long":-56.01023,"cap":232,"id":30,"categoria":4,"parent_id":12,"name":"Base de Gás Liquefeito de Petróleo"}},
{"type":"Feature","geometry":{"type":"Point","coordinates":[-48.30119598999994,-18.86939124999998]},"properties":{"nome_base":"COPAGAZ - BASE - UBERLÂNDIA/MG","munic":"UBERLANDIA","uf":"MG","razao_soci":"COPAGAZ DISTRIBUIDORA DE GÁS S/A.","lat":-18.86939125,"long":-48.30119599,"cap":353.16,"id":30,"categoria":4,"parent_id":12,"name":"Base de Gás Liquefeito de Petróleo"}},
{"type":"Feature","geometry":{"type":"Point","coordinates":[-53.392908329999955,-24.927449999999965]},"properties":{"nome_base":"LIQUÍGAS - BASE - CASCAVEL/PR","munic":"CASCAVEL","uf":"PR","razao_soci":"LIQUIGÁS DISTRIBUIDORA S.A.","lat":-24.92745,"long":-53.39290833,"cap":235.62,"id":30,"categoria":4,"parent_id":12,"name":"Base de Gás Liquefeito de Petróleo"}},
{"type":"Feature","geometry":{"type":"Point","coordinates":[-34.913391409999974,-8.11352519999997]},"properties":{"nome_base":"NACIONAL GÁS BUTANO - BASE - RECIFE/PE","munic":"RECIFE","uf":"PE","razao_soci":"NACIONAL GAS BUTANO DISTRIBUIDORA LTDA","lat":-8.1135252,"long":-34.91339141,"cap":104,"id":30,"categoria":4,"parent_id":12,"name":"Base de Gás Liquefeito de Petróleo"}},
{"type":"Feature","geometry":{"type":"Point","coordinates":[-34.97050999999993,-8.395648329999972]},"properties":{"nome_base":"NACIONAL GÁS BUTANO - BASE - IPOJUCA/PE","munic":"IPOJUCA","uf":"PE","razao_soci":"NACIONAL GAS BUTANO DISTRIBUIDORA LTDA","lat":-8.39564833,"long":-34.97051,"cap":1378.58,"id":30,"categoria":4,"parent_id":12,"name":"Base de Gás Liquefeito de Petróleo"}},
{"type":"Feature","geometry":{"type":"Point","coordinates":[-49.36098973999998,-25.555097529999955]},"properties":{"nome_base":"LIQUÍGAS - BASE - ARAUCÁRIA/PR","munic":"ARAUCARIA","uf":"PR","razao_soci":"LIQUIGÁS DISTRIBUIDORA S.A.","lat":-25.55509753,"long":-49.36098974,"cap":705.53,"id":30,"categoria":4,"parent_id":12,"name":"Base de Gás Liquefeito de Petróleo"}},
{"type":"Feature","geometry":{"type":"Point","coordinates":[-38.469844999999964,-3.712886669999932]},"properties":{"nome_base":"NACIONAL GÁS BUTANO - BASE - FORTALEZA/CE","munic":"FORTALEZA","uf":"CE","razao_soci":"NACIONAL GAS BUTANO DISTRIBUIDORA LTDA","lat":-3.71288667,"long":-38.469845,"cap":2007,"id":30,"categoria":4,"parent_id":12,"name":"Base de Gás Liquefeito de Petróleo"}},
{"type":"Feature","geometry":{"type":"Point","coordinates":[-44.34289667999997,-2.55730331999996]},"properties":{"nome_base":"NACIONAL GÁS - BASE - SÃO  LUÍS/MA","munic":"SAO LUIS","uf":"MA","razao_soci":"NACIONAL GAS BUTANO DISTRIBUIDORA LTDA","lat":-2.55730332,"long":-44.34289668,"cap":1418,"id":30,"categoria":4,"parent_id":12,"name":"Base de Gás Liquefeito de Petróleo"}},
{"type":"Feature","geometry":{"type":"Point","coordinates":[-47.976054999999974,-15.796529999999962]},"properties":{"nome_base":"SUPERGASBRAS -BASE- BRASÍLIA/DF","munic":"BRASILIA","uf":"DF","razao_soci":"SUPERGASBRAS ENERGIA LTDA","lat":-15.79653,"long":-47.976055,"cap":492.93,"id":30,"categoria":4,"parent_id":12,"name":"Base de Gás Liquefeito de Petróleo"}},
{"type":"Feature","geometry":{"type":"Point","coordinates":[-38.58652166999997,-12.709654999999941]},"properties":{"nome_base":"LIQUIGÁS - BASE - SÃO FRANCISCO DO CONDE/BA","munic":"SAO FRANCISCO DO CONDE","uf":"BA","razao_soci":"LIQUIGÁS DISTRIBUIDORA S.A.","lat":-12.709655,"long":-38.58652167,"cap":1074.69,"id":30,"categoria":4,"parent_id":12,"name":"Base de Gás Liquefeito de Petróleo"}},
{"type":"Feature","geometry":{"type":"Point","coordinates":[-49.21930666999998,-16.656864999999982]},"properties":{"nome_base":"COPAGAZ - BASE - GOIÂNIA/GO","munic":"GOIANIA","uf":"GO","razao_soci":"COPAGAZ DISTRIBUIDORA DE GÁS S/A.","lat":-16.656865,"long":-49.21930667,"cap":235.4,"id":30,"categoria":4,"parent_id":12,"name":"Base de Gás Liquefeito de Petróleo"}},
{"type":"Feature","geometry":{"type":"Point","coordinates":[-49.42344699999995,-20.809293999999966]},"properties":{"nome_base":"ULTRAGAZ - BASE - SÃO JOSÉ DO RIO PRETO/SP","munic":"SAO JOSE DO RIO PRETO","uf":"SP","razao_soci":"COMPANHIA ULTRAGAZ S A","lat":-20.809294,"long":-49.423447,"cap":60,"id":30,"categoria":4,"parent_id":12,"name":"Base de Gás Liquefeito de Petróleo"}},
{"type":"Feature","geometry":{"type":"Point","coordinates":[-47.140639489999955,-22.718310319999944]},"properties":{"nome_base":"COPAGAZ - BASE - PAULINIA/SP","munic":"PAULINIA","uf":"SP","razao_soci":"COPAGAZ DISTRIBUIDORA DE GÁS S/A.","lat":-22.71831032,"long":-47.14063949,"cap":477.7,"id":30,"categoria":4,"parent_id":12,"name":"Base de Gás Liquefeito de Petróleo"}},
{"type":"Feature","geometry":{"type":"Point","coordinates":[-47.143028329999936,-22.72043666999997]},"properties":{"nome_base":"COMPANHIA ULTRAGAZ S.A.","munic":"PAULINIA","uf":"SP","razao_soci":"COMPANHIA ULTRAGAZ S A","lat":-22.72043667,"long":-47.14302833,"cap":928,"id":30,"categoria":4,"parent_id":12,"name":"Base de Gás Liquefeito de Petróleo"}},
{"type":"Feature","geometry":{"type":"Point","coordinates":[-47.142561669999964,-22.71903999999995]},"properties":{"nome_base":"LIQUÍGAS - BASE - PAULINIA/SP","munic":"PAULINIA","uf":"SP","razao_soci":"LIQUIGÁS DISTRIBUIDORA S.A.","lat":-22.71904,"long":-47.14256167,"cap":1328.51,"id":30,"categoria":4,"parent_id":12,"name":"Base de Gás Liquefeito de Petróleo"}},
{"type":"Feature","geometry":{"type":"Point","coordinates":[-49.055876929999954,-11.652202329999966]},"properties":{"nome_base":"LIQUÍGAS - BASE - GURUPI/TO","munic":"GURUPI","uf":"TO","razao_soci":"LIQUIGÁS DISTRIBUIDORA S.A.","lat":-11.65220233,"long":-49.05587693,"cap":177.83,"id":30,"categoria":4,"parent_id":12,"name":"Base de Gás Liquefeito de Petróleo"}},
{"type":"Feature","geometry":{"type":"Point","coordinates":[-51.37218999999993,-22.17446666999996]},"properties":{"nome_base":"SERVGAS - BASE - PRESIDENTE PRUDENTE/SP","munic":"PRESIDENTE PRUDENTE","uf":"SP","razao_soci":"SERVGÁS DISTRIBUIDORA DE GÁS S. A.","lat":-22.17446667,"long":-51.37219,"cap":117.2,"id":30,"categoria":4,"parent_id":12,"name":"Base de Gás Liquefeito de Petróleo"}},
{"type":"Feature","geometry":{"type":"Point","coordinates":[-46.47882832999994,-23.657863739999982]},"properties":{"nome_base":"COPAGAZ - BASE - MAUÁ/SP","munic":"MAUA","uf":"SP","razao_soci":"COPAGAZ DISTRIBUIDORA DE GÁS S/A.","lat":-23.65786374,"long":-46.47882833,"cap":502.66,"id":30,"categoria":4,"parent_id":12,"name":"Base de Gás Liquefeito de Petróleo"}},
{"type":"Feature","geometry":{"type":"Point","coordinates":[-51.54434330999993,-27.17850151999994]},"properties":{"nome_base":"COMPANHIA ULTRAGAZ S.A.","munic":"JOACABA","uf":"SC","razao_soci":"COMPANHIA ULTRAGAZ S A","lat":-27.17850152,"long":-51.54434331,"cap":117.5,"id":30,"categoria":4,"parent_id":12,"name":"Base de Gás Liquefeito de Petróleo"}},
{"type":"Feature","geometry":{"type":"Point","coordinates":[-51.17226999999997,-29.876473329999953]},"properties":{"nome_base":"COPAGAZ - BASE - CANOAS/RS","munic":"CANOAS","uf":"RS","razao_soci":"COPAGAZ DISTRIBUIDORA DE GÁS S/A.","lat":-29.87647333,"long":-51.17227,"cap":370.49,"id":30,"categoria":4,"parent_id":12,"name":"Base de Gás Liquefeito de Petróleo"}},
{"type":"Feature","geometry":{"type":"Point","coordinates":[-51.167993329999945,-29.876426669999944]},"properties":{"nome_base":"SUPERGASBRAS- BASE- CANOAS/RS","munic":"CANOAS","uf":"RS","razao_soci":"SUPERGASBRAS ENERGIA LTDA","lat":-29.87642667,"long":-51.16799333,"cap":1187.4,"id":30,"categoria":4,"parent_id":12,"name":"Base de Gás Liquefeito de Petróleo"}},
{"type":"Feature","geometry":{"type":"Point","coordinates":[-43.27813794999997,-22.711490719999972]},"properties":{"nome_base":"SUPERGASBRAS - BASE - DUQUE DE CAXIAS/RJ II","munic":"DUQUE DE CAXIAS","uf":"RJ","razao_soci":"SUPERGASBRAS ENERGIA LTDA","lat":-22.71149072,"long":-43.27813795,"cap":2041.13,"id":30,"categoria":4,"parent_id":12,"name":"Base de Gás Liquefeito de Petróleo"}},
{"type":"Feature","geometry":{"type":"Point","coordinates":[-42.76007832999994,-5.09597832999998]},"properties":{"nome_base":"NACIONAL GÁS BUTANO - BASE - TERESINA/PI","munic":"TERESINA","uf":"PI","razao_soci":"NACIONAL GAS BUTANO DISTRIBUIDORA LTDA","lat":-5.09597833,"long":-42.76007833,"cap":118,"id":30,"categoria":4,"parent_id":12,"name":"Base de Gás Liquefeito de Petróleo"}},
{"type":"Feature","geometry":{"type":"Point","coordinates":[-53.067542999999944,-25.762904999999932]},"properties":{"nome_base":"COMPANHIA ULTRAGAZ S.A.","munic":"DOIS VIZINHOS","uf":"PR","razao_soci":"COMPANHIA ULTRAGAZ S A","lat":-25.762905,"long":-53.067543,"cap":117,"id":30,"categoria":4,"parent_id":12,"name":"Base de Gás Liquefeito de Petróleo"}},
{"type":"Feature","geometry":{"type":"Point","coordinates":[-52.47741332999993,-28.226931669999942]},"properties":{"nome_base":"LIQUÍGAS - BASE - PASSO FUNDO/RS","munic":"PASSO FUNDO","uf":"RS","razao_soci":"LIQUIGÁS DISTRIBUIDORA S.A.","lat":-28.22693167,"long":-52.47741333,"cap":237.66,"id":30,"categoria":4,"parent_id":12,"name":"Base de Gás Liquefeito de Petróleo"}},
{"type":"Feature","geometry":{"type":"Point","coordinates":[-52.34174570999994,-31.70920383999993]},"properties":{"nome_base":"LIQUÍGAS - BASE - PELOTAS/RS","munic":"PELOTAS","uf":"RS","razao_soci":"LIQUIGÁS DISTRIBUIDORA S.A.","lat":-31.70920384,"long":-52.34174571,"cap":235.81,"id":30,"categoria":4,"parent_id":12,"name":"Base de Gás Liquefeito de Petróleo"}},
{"type":"Feature","geometry":{"type":"Point","coordinates":[-55.980444999999975,-15.671281669999928]},"properties":{"nome_base":"SUPERGASBRAS -BASE- CUIABÁ/MT","munic":"CUIABA","uf":"MT","razao_soci":"SUPERGASBRAS ENERGIA LTDA","lat":-15.67128167,"long":-55.980445,"cap":219.03,"id":30,"categoria":4,"parent_id":12,"name":"Base de Gás Liquefeito de Petróleo"}},
{"type":"Feature","geometry":{"type":"Point","coordinates":[-55.977048329999946,-15.671992759999966]},"properties":{"nome_base":"LIQUÍGAS - BASE - CUIBÁ/MT","munic":"CUIABA","uf":"MT","razao_soci":"LIQUIGÁS DISTRIBUIDORA S.A.","lat":-15.67199276,"long":-55.97704833,"cap":178.01,"id":30,"categoria":4,"parent_id":12,"name":"Base de Gás Liquefeito de Petróleo"}},
{"type":"Feature","geometry":{"type":"Point","coordinates":[-48.29721332999998,-18.851593329999957]},"properties":{"nome_base":"LIQUÍGAS - BASE - UBERLÂNDIA/MG","munic":"UBERLANDIA","uf":"MG","razao_soci":"LIQUIGÁS DISTRIBUIDORA S.A.","lat":-18.85159333,"long":-48.29721333,"cap":177.78,"id":30,"categoria":4,"parent_id":12,"name":"Base de Gás Liquefeito de Petróleo"}},
{"type":"Feature","geometry":{"type":"Point","coordinates":[-34.83700832999995,-6.967661669999927]},"properties":{"nome_base":"NACIONAL GÁS - BASE- CABEDELO/PB","munic":"CABEDELO","uf":"PB","razao_soci":"NACIONAL GAS BUTANO DISTRIBUIDORA LTDA","lat":-6.96766167,"long":-34.83700833,"cap":319,"id":30,"categoria":4,"parent_id":12,"name":"Base de Gás Liquefeito de Petróleo"}},
{"type":"Feature","geometry":{"type":"Point","coordinates":[-49.37077375999996,-25.557270589999973]},"properties":{"nome_base":"NACIONAL GÁS BUTANO - BASE - ARAUCARIA/PR","munic":"ARAUCARIA","uf":"PR","razao_soci":"NACIONAL GAS BUTANO DISTRIBUIDORA LTDA","lat":-25.55727059,"long":-49.37077376,"cap":825,"id":30,"categoria":4,"parent_id":12,"name":"Base de Gás Liquefeito de Petróleo"}},
{"type":"Feature","geometry":{"type":"Point","coordinates":[-42.659437999999966,-19.528615999999943]},"properties":{"nome_base":"SUPERGASBRAS -BASE- TIMOTEO/MG","munic":"TIMOTEO","uf":"MG","razao_soci":"SUPERGASBRAS ENERGIA LTDA","lat":-19.528616,"long":-42.659438,"cap":53.11,"id":30,"categoria":4,"parent_id":12,"name":"Base de Gás Liquefeito de Petróleo"}},
{"type":"Feature","geometry":{"type":"Point","coordinates":[-45.92557499999998,-22.23342999999994]},"properties":{"nome_base":"ULTRAGAZ - BASE - POUSO ALEGRE","munic":"POUSO ALEGRE","uf":"MG","razao_soci":"COMPANHIA ULTRAGAZ S A","lat":-22.23343,"long":-45.925575,"cap":54.6,"id":30,"categoria":4,"parent_id":12,"name":"Base de Gás Liquefeito de Petróleo"}},
{"type":"Feature","geometry":{"type":"Point","coordinates":[-38.46632499999998,-3.71505499999995]},"properties":{"nome_base":"LIQUÍGAS - BASE - FORTALEZA/CE","munic":"FORTALEZA","uf":"CE","razao_soci":"LIQUIGÁS DISTRIBUIDORA S.A.","lat":-3.715055,"long":-38.466325,"cap":709.19,"id":30,"categoria":4,"parent_id":12,"name":"Base de Gás Liquefeito de Petróleo"}},
{"type":"Feature","geometry":{"type":"Point","coordinates":[-49.11023666999995,-16.710221669999953]},"properties":{"nome_base":"NACIONAL GÁS BUTANO - BASE - SENADOR CANEDO/GO","munic":"SENADOR CANEDO","uf":"GO","razao_soci":"NACIONAL GAS BUTANO DISTRIBUIDORA LTDA","lat":-16.71022167,"long":-49.11023667,"cap":177,"id":30,"categoria":4,"parent_id":12,"name":"Base de Gás Liquefeito de Petróleo"}},
{"type":"Feature","geometry":{"type":"Point","coordinates":[-38.58573666999996,-12.708223329999953]},"properties":{"nome_base":"BAHIANA - BASE - SÃO FRANCISCO DO CONDE/BA","munic":"SAO FRANCISCO DO CONDE","uf":"BA","razao_soci":"BAHIANA DISTRIBUIDORA DE GÁS LTDA","lat":-12.70822333,"long":-38.58573667,"cap":999.76,"id":30,"categoria":4,"parent_id":12,"name":"Base de Gás Liquefeito de Petróleo"}},
{"type":"Feature","geometry":{"type":"Point","coordinates":[-45.81057499999997,-23.18647999999996]},"properties":{"nome_base":"CONSIGAZ - BASE - SAO JOSE DOS CAMPOS/SP","munic":"SAO JOSE DOS CAMPOS","uf":"SP","razao_soci":"CONSIGAZ DISTRIBUIDORA DE GÁS LTDA.","lat":-23.18648,"long":-45.810575,"cap":360,"id":30,"categoria":4,"parent_id":12,"name":"Base de Gás Liquefeito de Petróleo"}},
{"type":"Feature","geometry":{"type":"Point","coordinates":[-45.81182166999997,-23.184009999999944]},"properties":{"nome_base":"LIQUÍGAS - BASE - SÃO JOSÉ DOS CAMPOS/SP","munic":"SAO JOSE DOS CAMPOS","uf":"SP","razao_soci":"LIQUIGÁS DISTRIBUIDORA S.A.","lat":-23.18401,"long":-45.81182167,"cap":353.12,"id":30,"categoria":4,"parent_id":12,"name":"Base de Gás Liquefeito de Petróleo"}},
{"type":"Feature","geometry":{"type":"Point","coordinates":[-47.140799999999956,-22.71812332999997]},"properties":{"nome_base":"ULTRAGAZ - BASE - PAULÍNIA/SP","munic":"PAULINIA","uf":"SP","razao_soci":"COMPANHIA ULTRAGAZ S A","lat":-22.71812333,"long":-47.1408,"cap":816.63,"id":30,"categoria":4,"parent_id":12,"name":"Base de Gás Liquefeito de Petróleo"}},
{"type":"Feature","geometry":{"type":"Point","coordinates":[-46.817688369999985,-23.50848992999994]},"properties":{"nome_base":"LIQUIGAS - BASE - BARUERI/SP","munic":"BARUERI","uf":"SP","razao_soci":"LIQUIGÁS DISTRIBUIDORA S.A.","lat":-23.50848993,"long":-46.81768837,"cap":2018.48,"id":30,"categoria":4,"parent_id":12,"name":"Base de Gás Liquefeito de Petróleo"}},
{"type":"Feature","geometry":{"type":"Point","coordinates":[-67.86652826999995,-9.94788570999998]},"properties":{"nome_base":"FOGAS - BASE - RIO BRANCO/AC","munic":"RIO BRANCO","uf":"AC","razao_soci":"SOCIEDADE FOGAS LTDA","lat":-9.94788571,"long":-67.86652827,"cap":540,"id":30,"categoria":4,"parent_id":12,"name":"Base de Gás Liquefeito de Petróleo"}},
{"type":"Feature","geometry":{"type":"Point","coordinates":[-59.95419832999994,-3.1321716699999342]},"properties":{"nome_base":"AMAZONGÁS - BASE - MANAUS/AM","munic":"MANAUS","uf":"AM","razao_soci":"AMAZONGÁS DISTRIBUIDORA DE GÁS LIQUEFEITO DE PETRÓLEO LTDA.","lat":-3.13217167,"long":-59.95419833,"cap":1230,"id":30,"categoria":4,"parent_id":12,"name":"Base de Gás Liquefeito de Petróleo"}},
{"type":"Feature","geometry":{"type":"Point","coordinates":[-46.47549466999993,-23.659633519999943]},"properties":{"nome_base":"ULTRAGAZ - BASE - MAUÁ/SP II","munic":"MAUA","uf":"SP","razao_soci":"COMPANHIA ULTRAGAZ S A","lat":-23.65963352,"long":-46.47549467,"cap":701.46,"id":30,"categoria":4,"parent_id":12,"name":"Base de Gás Liquefeito de Petróleo"}},
{"type":"Feature","geometry":{"type":"Point","coordinates":[-63.918294999999944,-8.736631669999952]},"properties":{"nome_base":"SOCIEDADE FOGAS PORTO VELHO","munic":"PORTO VELHO","uf":"RO","razao_soci":"SOCIEDADE FOGAS LTDA","lat":-8.73663167,"long":-63.918295,"cap":1830,"id":30,"categoria":4,"parent_id":12,"name":"Base de Gás Liquefeito de Petróleo"}},
{"type":"Feature","geometry":{"type":"Point","coordinates":[-51.16057166999997,-29.87713666999997]},"properties":{"nome_base":"CONSIGAZ - BASE - CANOAS/RS","munic":"CANOAS","uf":"RS","razao_soci":"CONSIGAZ DISTRIBUIDORA DE GÁS LTDA.","lat":-29.87713667,"long":-51.16057167,"cap":554,"id":30,"categoria":4,"parent_id":12,"name":"Base de Gás Liquefeito de Petróleo"}},
{"type":"Feature","geometry":{"type":"Point","coordinates":[-43.275516049999965,-22.709859879999954]},"properties":{"nome_base":"CONSIGAZ - BASE - DUQUE DE CAXIAS/RJ","munic":"DUQUE DE CAXIAS","uf":"RJ","razao_soci":"CONSIGAZ DISTRIBUIDORA DE GÁS LTDA.","lat":-22.70985988,"long":-43.27551605,"cap":518,"id":30,"categoria":4,"parent_id":12,"name":"Base de Gás Liquefeito de Petróleo"}},
{"type":"Feature","geometry":{"type":"Point","coordinates":[-47.19775499999997,-22.61844832999998]},"properties":{"nome_base":"PROPANGAS - BASE - COSMOPOLIS/SP","munic":"COSMOPOLIS","uf":"SP","razao_soci":"PROPANGAS LTDA.","lat":-22.61844833,"long":-47.197755,"cap":114,"id":30,"categoria":4,"parent_id":12,"name":"Base de Gás Liquefeito de Petróleo"}},
{"type":"Feature","geometry":{"type":"Point","coordinates":[-54.73928166999997,-2.4151933299999655]},"properties":{"nome_base":"SOCIEDADE FOGAS SANTARÉM","munic":"SANTAREM","uf":"PA","razao_soci":"SOCIEDADE FOGAS LTDA","lat":-2.41519333,"long":-54.73928167,"cap":360,"id":30,"categoria":4,"parent_id":12,"name":"Base de Gás Liquefeito de Petróleo"}},
{"type":"Feature","geometry":{"type":"Point","coordinates":[-34.93147832999995,-7.2494049999999675]},"properties":{"nome_base":"BAHIANA - BASE - CONDE/PB","munic":"CONDE","uf":"PB","razao_soci":"BAHIANA DISTRIBUIDORA DE GÁS LTDA","lat":-7.249405,"long":-34.93147833,"cap":58.24,"id":30,"categoria":4,"parent_id":12,"name":"Base de Gás Liquefeito de Petróleo"}},
{"type":"Feature","geometry":{"type":"Point","coordinates":[-49.369388329999936,-25.556806669999958]},"properties":{"nome_base":"COPAGAZ - BASE - ARAUCÁRIA/PA","munic":"ARAUCARIA","uf":"PR","razao_soci":"COPAGAZ DISTRIBUIDORA DE GÁS S/A.","lat":-25.55680667,"long":-49.36938833,"cap":251.12,"id":30,"categoria":4,"parent_id":12,"name":"Base de Gás Liquefeito de Petróleo"}},
{"type":"Feature","geometry":{"type":"Point","coordinates":[-40.06653234999993,-19.822529309999936]},"properties":{"nome_base":"CIA ULTRAGAZ (EX-) NUTRIGAS - ARACRUZ","munic":"ARACRUZ","uf":"ES","razao_soci":"COMPANHIA ULTRAGAZ S A","lat":-19.82252931,"long":-40.06653235,"cap":228.13,"id":30,"categoria":4,"parent_id":12,"name":"Base de Gás Liquefeito de Petróleo"}},
{"type":"Feature","geometry":{"type":"Point","coordinates":[-49.220478329999935,-16.658866669999952]},"properties":{"nome_base":"LIQUÍGAS - BASE - GOIÂNA/GO","munic":"GOIANIA","uf":"GO","razao_soci":"LIQUIGÁS DISTRIBUIDORA S.A.","lat":-16.65886667,"long":-49.22047833,"cap":352.41,"id":30,"categoria":4,"parent_id":12,"name":"Base de Gás Liquefeito de Petróleo"}},
{"type":"Feature","geometry":{"type":"Point","coordinates":[-35.75990403999998,-9.590539299999932]},"properties":{"nome_base":"NACIONAL GÁS BUTANO - BASE - MACEIÓ/AL","munic":"MACEIO","uf":"AL","razao_soci":"NACIONAL GAS BUTANO DISTRIBUIDORA LTDA","lat":-9.5905393,"long":-35.75990404,"cap":386,"id":30,"categoria":4,"parent_id":12,"name":"Base de Gás Liquefeito de Petróleo"}},
{"type":"Feature","geometry":{"type":"Point","coordinates":[-45.81258839999998,-23.184488019999947]},"properties":{"nome_base":"ULTRAGAZ - BASE - SÃO JOSE DOS CAMPOS/SP I","munic":"SAO JOSE DOS CAMPOS","uf":"SP","razao_soci":"COMPANHIA ULTRAGAZ S A","lat":-23.18448802,"long":-45.8125884,"cap":342,"id":30,"categoria":4,"parent_id":12,"name":"Base de Gás Liquefeito de Petróleo"}},
{"type":"Feature","geometry":{"type":"Point","coordinates":[-45.81024832999998,-23.18529332999998]},"properties":{"nome_base":"NACIONAL GÁS BUTANO - BASE - SÃO JOSÉ DOS CAMPOS/SP","munic":"SAO JOSE DOS CAMPOS","uf":"SP","razao_soci":"NACIONAL GAS BUTANO DISTRIBUIDORA LTDA","lat":-23.18529333,"long":-45.81024833,"cap":348,"id":30,"categoria":4,"parent_id":12,"name":"Base de Gás Liquefeito de Petróleo"}},
{"type":"Feature","geometry":{"type":"Point","coordinates":[-47.14120499999996,-22.719578329999933]},"properties":{"nome_base":"SERVGAS - BASE - PAULÍNIA/SP","munic":"PAULINIA","uf":"SP","razao_soci":"SERVGÁS DISTRIBUIDORA DE GÁS S. A.","lat":-22.71957833,"long":-47.141205,"cap":354.9,"id":30,"categoria":4,"parent_id":12,"name":"Base de Gás Liquefeito de Petróleo"}},
{"type":"Feature","geometry":{"type":"Point","coordinates":[-46.818755049999936,-23.503450639999983]},"properties":{"nome_base":"CONSIGAZ - BASE - BARUERI/SP","munic":"BARUERI","uf":"SP","razao_soci":"CONSIGAZ DISTRIBUIDORA DE GÁS LTDA.","lat":-23.50345064,"long":-46.81875505,"cap":720,"id":30,"categoria":4,"parent_id":12,"name":"Base de Gás Liquefeito de Petróleo"}},
{"type":"Feature","geometry":{"type":"Point","coordinates":[-46.81856306999998,-23.503621219999957]},"properties":{"nome_base":"NACIONAL GÁS BUTANO - BASE - BARUERI/SP","munic":"BARUERI","uf":"SP","razao_soci":"NACIONAL GAS BUTANO DISTRIBUIDORA LTDA","lat":-23.50362122,"long":-46.81856307,"cap":756,"id":30,"categoria":4,"parent_id":12,"name":"Base de Gás Liquefeito de Petróleo"}},
{"type":"Feature","geometry":{"type":"Point","coordinates":[-46.475084909999964,-23.65482187999993]},"properties":{"nome_base":"CONSIGAZ - BASE - MAUA/SP","munic":"MAUA","uf":"SP","razao_soci":"CONSIGAZ DISTRIBUIDORA DE GÁS LTDA.","lat":-23.65482188,"long":-46.47508491,"cap":1355.87,"id":30,"categoria":4,"parent_id":12,"name":"Base de Gás Liquefeito de Petróleo"}},
{"type":"Feature","geometry":{"type":"Point","coordinates":[-51.23982166999997,-29.177566669999976]},"properties":{"nome_base":"LIQUÍGAS - BASE - CAXIAS DO SUL/RS","munic":"CAXIAS DO SUL","uf":"RS","razao_soci":"LIQUIGÁS DISTRIBUIDORA S.A.","lat":-29.17756667,"long":-51.23982167,"cap":56.73,"id":30,"categoria":4,"parent_id":12,"name":"Base de Gás Liquefeito de Petróleo"}},
{"type":"Feature","geometry":{"type":"Point","coordinates":[-52.614410229999976,-27.13027956999997]},"properties":{"nome_base":"ULTRAGAZ - BASE - CHAPECÓ/SC","munic":"CHAPECO","uf":"SC","razao_soci":"COMPANHIA ULTRAGAZ S A","lat":-27.13027957,"long":-52.61441023,"cap":54.85,"id":30,"categoria":4,"parent_id":12,"name":"Base de Gás Liquefeito de Petróleo"}},
{"type":"Feature","geometry":{"type":"Point","coordinates":[-43.272367799999984,-22.71272948999996]},"properties":{"nome_base":"LIQUIGÁS - BASE - DUQUE DE CAXIAS/RJ","munic":"DUQUE DE CAXIAS","uf":"RJ","razao_soci":"LIQUIGÁS DISTRIBUIDORA S.A.","lat":-22.71272949,"long":-43.2723678,"cap":614.73,"id":30,"categoria":4,"parent_id":12,"name":"Base de Gás Liquefeito de Petróleo"}},
{"type":"Feature","geometry":{"type":"Point","coordinates":[-50.17825832999995,-25.061079999999947]},"properties":{"nome_base":"COMPANHIA ULTRAGAZ S.A.","munic":"PONTA GROSSA","uf":"PR","razao_soci":"COMPANHIA ULTRAGAZ S A","lat":-25.06108,"long":-50.17825833,"cap":115,"id":30,"categoria":4,"parent_id":12,"name":"Base de Gás Liquefeito de Petróleo"}},
{"type":"Feature","geometry":{"type":"Point","coordinates":[-54.69552700999998,-20.453744979999954]},"properties":{"nome_base":"COPAGAZ - BASE - NOVA CAMPO GRANDE/MS","munic":"CAMPO GRANDE","uf":"MS","razao_soci":"COPAGAZ DISTRIBUIDORA DE GÁS S/A.","lat":-20.45374498,"long":-54.69552701,"cap":706.1,"id":30,"categoria":4,"parent_id":12,"name":"Base de Gás Liquefeito de Petróleo"}},
{"type":"Feature","geometry":{"type":"Point","coordinates":[-44.101201669999966,-19.95368166999998]},"properties":{"nome_base":"ULTRAGAZ - BASE - BETIM/MG","munic":"BETIM","uf":"MG","razao_soci":"COMPANHIA ULTRAGAZ S A","lat":-19.95368167,"long":-44.10120167,"cap":193.4,"id":30,"categoria":4,"parent_id":12,"name":"Base de Gás Liquefeito de Petróleo"}},
{"type":"Feature","geometry":{"type":"Point","coordinates":[-47.97997166999994,-15.800589999999943]},"properties":{"nome_base":"NACIONAL GÁS BUTANO - BRASILIA/DF","munic":"BRASILIA","uf":"DF","razao_soci":"NACIONAL GAS BUTANO DISTRIBUIDORA LTDA","lat":-15.80059,"long":-47.97997167,"cap":179,"id":30,"categoria":4,"parent_id":12,"name":"Base de Gás Liquefeito de Petróleo"}},
{"type":"Feature","geometry":{"type":"Point","coordinates":[-39.372808979999945,-7.224317889999952]},"properties":{"nome_base":"NACIONAL GÁS BUTANO - BASE - CRATO/CE","munic":"CRATO","uf":"CE","razao_soci":"NACIONAL GAS BUTANO DISTRIBUIDORA LTDA","lat":-7.22431789,"long":-39.37280898,"cap":156,"id":30,"categoria":4,"parent_id":12,"name":"Base de Gás Liquefeito de Petróleo"}},
{"type":"Feature","geometry":{"type":"Point","coordinates":[-46.36954166999993,-23.92532499999993]},"properties":{"nome_base":"LIQUIGAS - BASE - SANTOS/SP","munic":"SANTOS","uf":"SP","razao_soci":"LIQUIGÁS DISTRIBUIDORA S.A.","lat":-23.925325,"long":-46.36954167,"cap":649.34,"id":30,"categoria":4,"parent_id":12,"name":"Base de Gás Liquefeito de Petróleo"}},
{"type":"Feature","geometry":{"type":"Point","coordinates":[-49.34598299999993,-20.84742799999998]},"properties":{"nome_base":"LIQUÍGAS - BASE - SÃO JOSÉ DO RIO PETRO/SP","munic":"SAO JOSE DO RIO PRETO","uf":"SP","razao_soci":"LIQUIGÁS DISTRIBUIDORA S.A.","lat":-20.847428,"long":-49.345983,"cap":58.22,"id":30,"categoria":4,"parent_id":12,"name":"Base de Gás Liquefeito de Petróleo"}},
{"type":"Feature","geometry":{"type":"Point","coordinates":[-45.81087499999995,-23.183578329999932]},"properties":{"nome_base":"GASBALL - BASE - SÃO JOSE DOS CAMPOS/SP","munic":"SAO JOSE DOS CAMPOS","uf":"SP","razao_soci":"GASBALL ARMAZENADORA E DISTRIBUIDORA LTDA.","lat":-23.18357833,"long":-45.810875,"cap":668.7,"id":30,"categoria":4,"parent_id":12,"name":"Base de Gás Liquefeito de Petróleo"}},
{"type":"Feature","geometry":{"type":"Point","coordinates":[-46.70630165999995,-23.68471305999998]},"properties":{"nome_base":"COPAGAZ - BASE - SÃO PAULO/SP","munic":"SAO PAULO","uf":"SP","razao_soci":"COPAGAZ DISTRIBUIDORA DE GÁS S/A.","lat":-23.68471306,"long":-46.70630166,"cap":292.93,"id":30,"categoria":4,"parent_id":12,"name":"Base de Gás Liquefeito de Petróleo"}},
{"type":"Feature","geometry":{"type":"Point","coordinates":[-47.87876499999993,-21.14602832999998]},"properties":{"nome_base":"NACIONAL GÁS BUTANO - BASE - RIBEIRÃO PRETO/SP","munic":"RIBEIRAO PRETO","uf":"SP","razao_soci":"NACIONAL GAS BUTANO DISTRIBUIDORA LTDA","lat":-21.14602833,"long":-47.878765,"cap":177,"id":30,"categoria":4,"parent_id":12,"name":"Base de Gás Liquefeito de Petróleo"}},
{"type":"Feature","geometry":{"type":"Point","coordinates":[-46.477578559999984,-23.655577139999934]},"properties":{"nome_base":"ULTRAGAZ - BASE - MAUÁ/SP I","munic":"MAUA","uf":"SP","razao_soci":"COMPANHIA ULTRAGAZ S A","lat":-23.65557714,"long":-46.47757856,"cap":720,"id":30,"categoria":4,"parent_id":12,"name":"Base de Gás Liquefeito de Petróleo"}},
{"type":"Feature","geometry":{"type":"Point","coordinates":[-48.64943770999997,-27.61965663999996]},"properties":{"nome_base":"LIQUÍGAS - BASE - SÃO JOSÉ/SC","munic":"SAO JOSE","uf":"SC","razao_soci":"LIQUIGÁS DISTRIBUIDORA S.A.","lat":-27.61965664,"long":-48.64943771,"cap":57.44,"id":30,"categoria":4,"parent_id":12,"name":"Base de Gás Liquefeito de Petróleo"}},
{"type":"Feature","geometry":{"type":"Point","coordinates":[-49.10703499999994,-22.295081669999945]},"properties":{"nome_base":"COMPANHIA ULTRAGAZ - BAURU","munic":"BAURU","uf":"SP","razao_soci":"COMPANHIA ULTRAGAZ S A","lat":-22.29508167,"long":-49.107035,"cap":116.6,"id":30,"categoria":4,"parent_id":12,"name":"Base de Gás Liquefeito de Petróleo"}},
{"type":"Feature","geometry":{"type":"Point","coordinates":[-48.97978666999995,-22.31244166999994]},"properties":{"nome_base":"NACIONAL GÁS BUTANO - BASE - BAURU/SP","munic":"BAURU","uf":"SP","razao_soci":"NACIONAL GAS BUTANO DISTRIBUIDORA LTDA","lat":-22.31244167,"long":-48.97978667,"cap":118,"id":30,"categoria":4,"parent_id":12,"name":"Base de Gás Liquefeito de Petróleo"}},
{"type":"Feature","geometry":{"type":"Point","coordinates":[-60.72890399999994,2.7566980000000285]},"properties":{"nome_base":"FOGÁS - BASE - BOA VISTA/RR","munic":"BOA VISTA","uf":"RR","razao_soci":"SOCIEDADE FOGAS LTDA","lat":2.756698,"long":-60.728904,"cap":540,"id":30,"categoria":4,"parent_id":12,"name":"Base de Gás Liquefeito de Petróleo"}},
{"type":"Feature","geometry":{"type":"Point","coordinates":[-48.710021669999946,-26.95136920999994]},"properties":{"nome_base":"NACIONAL GAS BUTANO - BASE -  ITAJAI/SC","munic":"ITAJAI","uf":"SC","razao_soci":"NACIONAL GAS BUTANO DISTRIBUIDORA LTDA","lat":-26.95136921,"long":-48.71002167,"cap":163,"id":30,"categoria":4,"parent_id":12,"name":"Base de Gás Liquefeito de Petróleo"}},
{"type":"Feature","geometry":{"type":"Point","coordinates":[-48.693158309999944,-26.882331059999956]},"properties":{"nome_base":"LIQUIGAS - BASE - ITAJAÍ/SC","munic":"ITAJAI","uf":"SC","razao_soci":"LIQUIGÁS DISTRIBUIDORA S.A.","lat":-26.88233106,"long":-48.69315831,"cap":236.86,"id":30,"categoria":4,"parent_id":12,"name":"Base de Gás Liquefeito de Petróleo"}},
{"type":"Feature","geometry":{"type":"Point","coordinates":[-48.887621499999966,-26.28313591999995]},"properties":{"nome_base":"ULTRAGAZ - BASE - JOINVILLE/SC","munic":"JOINVILLE","uf":"SC","razao_soci":"COMPANHIA ULTRAGAZ S A","lat":-26.28313592,"long":-48.8876215,"cap":30,"id":30,"categoria":4,"parent_id":12,"name":"Base de Gás Liquefeito de Petróleo"}},
{"type":"Feature","geometry":{"type":"Point","coordinates":[-48.83281741999997,-26.369959729999948]},"properties":{"nome_base":"LIQUÍGAS - BASE - JOINVILLE/SC","munic":"JOINVILLE","uf":"SC","razao_soci":"LIQUIGÁS DISTRIBUIDORA S.A.","lat":-26.36995973,"long":-48.83281742,"cap":56.89,"id":30,"categoria":4,"parent_id":12,"name":"Base de Gás Liquefeito de Petróleo"}},
{"type":"Feature","geometry":{"type":"Point","coordinates":[-51.20166275999998,-29.870309119999945]},"properties":{"nome_base":"LIQUIGAS - BASE - CANOAS/RS II","munic":"CANOAS","uf":"RS","razao_soci":"LIQUIGÁS DISTRIBUIDORA S.A.","lat":-29.87030912,"long":-51.20166276,"cap":224.4,"id":30,"categoria":4,"parent_id":12,"name":"Base de Gás Liquefeito de Petróleo"}},
{"type":"Feature","geometry":{"type":"Point","coordinates":[-51.20166409999996,-29.967653759999962]},"properties":{"nome_base":"SUPERGASBRAS - BASE - CANOAS/RS II","munic":"CANOAS","uf":"RS","razao_soci":"SUPERGASBRAS ENERGIA LTDA","lat":-29.96765376,"long":-51.2016641,"cap":643.32,"id":30,"categoria":4,"parent_id":12,"name":"Base de Gás Liquefeito de Petróleo"}},
{"type":"Feature","geometry":{"type":"Point","coordinates":[-51.20217832999998,-29.966686669999945]},"properties":{"nome_base":"LIQUIGAS CANOAS","munic":"CANOAS","uf":"RS","razao_soci":"LIQUIGÁS DISTRIBUIDORA S.A.","lat":-29.96668667,"long":-51.20217833,"cap":1719.38,"id":30,"categoria":4,"parent_id":12,"name":"Base de Gás Liquefeito de Petróleo"}},
{"type":"Feature","geometry":{"type":"Point","coordinates":[-48.65088332999994,-27.504849999999976]},"properties":{"nome_base":"SUPERGASBRAS - BASE - BIGUAÇU/SC","munic":"BIGUACU","uf":"SC","razao_soci":"SUPERGASBRAS ENERGIA LTDA","lat":-27.50485,"long":-48.65088333,"cap":51.45,"id":30,"categoria":4,"parent_id":12,"name":"Base de Gás Liquefeito de Petróleo"}},
{"type":"Feature","geometry":{"type":"Point","coordinates":[-43.28178617999998,-22.767007169999943]},"properties":{"nome_base":"GLP GAS - BASE - DUQUE DE CAXIAS/RJ","munic":"DUQUE DE CAXIAS","uf":"RJ","razao_soci":"GLP GAS DISTRIBUIDORA DE GAS LTDA.","lat":-22.76700717,"long":-43.28178618,"cap":57,"id":30,"categoria":4,"parent_id":12,"name":"Base de Gás Liquefeito de Petróleo"}},
{"type":"Feature","geometry":{"type":"Point","coordinates":[-50.467241669999964,-21.187663329999964]},"properties":{"nome_base":"ULTRAGAZ - BASE - ARAÇATUBA/SP","munic":"ARACATUBA","uf":"SP","razao_soci":"COMPANHIA ULTRAGAZ S A","lat":-21.18766333,"long":-50.46724167,"cap":174.4,"id":30,"categoria":4,"parent_id":12,"name":"Base de Gás Liquefeito de Petróleo"}},
{"type":"Feature","geometry":{"type":"Point","coordinates":[-41.71219639999998,-22.293414349999978]},"properties":{"nome_base":"LIQUÍGAS - BASE - MACAÉ/RJ","munic":"MACAE","uf":"RJ","razao_soci":"LIQUIGÁS DISTRIBUIDORA S.A.","lat":-22.29341435,"long":-41.7121964,"cap":355.01,"id":30,"categoria":4,"parent_id":12,"name":"Base de Gás Liquefeito de Petróleo"}},
{"type":"Feature","geometry":{"type":"Point","coordinates":[-34.921393329999944,-7.186918329999969]},"properties":{"nome_base":"SOS BASE DE JOÃO PESSOA","munic":"JOAO PESSOA","uf":"PB","razao_soci":"SOS GÁS DISTRIBUIDORA LTDA","lat":-7.18691833,"long":-34.92139333,"cap":79,"id":30,"categoria":4,"parent_id":12,"name":"Base de Gás Liquefeito de Petróleo"}},
{"type":"Feature","geometry":{"type":"Point","coordinates":[-34.97548999999998,-8.395406669999943]},"properties":{"nome_base":"COPAGAZ - BASE - IPOJUCA/PE","munic":"IPOJUCA","uf":"PE","razao_soci":"COPAGAZ DISTRIBUIDORA DE GÁS S/A.","lat":-8.39540667,"long":-34.97549,"cap":486.23,"id":30,"categoria":4,"parent_id":12,"name":"Base de Gás Liquefeito de Petróleo"}},
{"type":"Feature","geometry":{"type":"Point","coordinates":[-49.44787011999995,-25.553004749999957]},"properties":{"nome_base":"USEGÁS - BASE - ARAUCÁRIA/PR","munic":"ARAUCARIA","uf":"PR","razao_soci":"USEGÁS DISTRIBUIDORA DE GÁS LTDA. - EPP","lat":-25.55300475,"long":-49.44787012,"cap":60,"id":30,"categoria":4,"parent_id":12,"name":"Base de Gás Liquefeito de Petróleo"}},
{"type":"Feature","geometry":{"type":"Point","coordinates":[-49.36071666999993,-25.556596669999976]},"properties":{"nome_base":"SUPERGASBRAS - BASE - ARAUCARIA/PR","munic":"ARAUCARIA","uf":"PR","razao_soci":"SUPERGASBRAS ENERGIA LTDA","lat":-25.55659667,"long":-49.36071667,"cap":1640.46,"id":30,"categoria":4,"parent_id":12,"name":"Base de Gás Liquefeito de Petróleo"}},
{"type":"Feature","geometry":{"type":"Point","coordinates":[-54.68039378999998,-20.453432239999927]},"properties":{"nome_base":"SUPERGASBRAS - BASE- CAMPO GRANDE/MS","munic":"CAMPO GRANDE","uf":"MS","razao_soci":"SUPERGASBRAS ENERGIA LTDA","lat":-20.45343224,"long":-54.68039379,"cap":193.35,"id":30,"categoria":4,"parent_id":12,"name":"Base de Gás Liquefeito de Petróleo"}},
{"type":"Feature","geometry":{"type":"Point","coordinates":[-44.09868856999998,-19.95537410999998]},"properties":{"nome_base":"SUPERGASBRAS DISTRIBUIDORA DE GAS LTDA.","munic":"BETIM","uf":"MG","razao_soci":"SUPERGASBRAS ENERGIA LTDA","lat":-19.95537411,"long":-44.09868857,"cap":913.4,"id":30,"categoria":4,"parent_id":12,"name":"Base de Gás Liquefeito de Petróleo"}},
{"type":"Feature","geometry":{"type":"Point","coordinates":[-40.392682959999945,-20.280275649999965]},"properties":{"nome_base":"CONSIGAZ - BASE - CARIACICA/ES","munic":"CARIACICA","uf":"ES","razao_soci":"CONSIGAZ DISTRIBUIDORA DE GÁS LTDA.","lat":-20.28027565,"long":-40.39268296,"cap":240,"id":30,"categoria":4,"parent_id":12,"name":"Base de Gás Liquefeito de Petróleo"}},
{"type":"Feature","geometry":{"type":"Point","coordinates":[-38.58763832999995,-12.711124999999981]},"properties":{"nome_base":"NACIONAL GÁS BUTANO - BASE -  SÃO FRANCISCO DO CONDE/BA","munic":"SAO FRANCISCO DO CONDE","uf":"BA","razao_soci":"NACIONAL GAS BUTANO DISTRIBUIDORA LTDA","lat":-12.711125,"long":-38.58763833,"cap":531,"id":30,"categoria":4,"parent_id":12,"name":"Base de Gás Liquefeito de Petróleo"}},
{"type":"Feature","geometry":{"type":"Point","coordinates":[-38.460881669999935,-12.91757832999997]},"properties":{"nome_base":"BAHIANA - BASE - CAMPINAS DO PIRAJÁ/BA","munic":"SALVADOR","uf":"BA","razao_soci":"BAHIANA DISTRIBUIDORA DE GÁS LTDA","lat":-12.91757833,"long":-38.46088167,"cap":54.85,"id":30,"categoria":4,"parent_id":12,"name":"Base de Gás Liquefeito de Petróleo"}},
{"type":"Feature","geometry":{"type":"Point","coordinates":[-35.75905820999998,-9.591118359999939]},"properties":{"nome_base":"BASE DE MARECHAL DEODORO","munic":"MACEIO","uf":"AL","razao_soci":"BAHIANA DISTRIBUIDORA DE GÁS LTDA","lat":-9.59111836,"long":-35.75905821,"cap":692,"id":30,"categoria":4,"parent_id":12,"name":"Base de Gás Liquefeito de Petróleo"}},
{"type":"Feature","geometry":{"type":"Point","coordinates":[-45.81188661999994,-23.184359339999958]},"properties":{"nome_base":"SUPERGASBRAS- BASE- SÃO JOSE DOS CAMPOS/SP","munic":"SAO JOSE DOS CAMPOS","uf":"SP","razao_soci":"SUPERGASBRAS ENERGIA LTDA","lat":-23.18435934,"long":-45.81188662,"cap":522.44,"id":30,"categoria":4,"parent_id":12,"name":"Base de Gás Liquefeito de Petróleo"}},
{"type":"Feature","geometry":{"type":"Point","coordinates":[-47.14032666999998,-22.71767499999993]},"properties":{"nome_base":"NACIONAL GÁS BUTANO - BASE - PAULÍNIA/SP","munic":"PAULINIA","uf":"SP","razao_soci":"NACIONAL GAS BUTANO DISTRIBUIDORA LTDA","lat":-22.717675,"long":-47.14032667,"cap":352,"id":30,"categoria":4,"parent_id":12,"name":"Base de Gás Liquefeito de Petróleo"}},
{"type":"Feature","geometry":{"type":"Point","coordinates":[-46.816827959999955,-23.502943389999928]},"properties":{"nome_base":"ULTRAGAZ - BASE - BARUERI/SP","munic":"BARUERI","uf":"SP","razao_soci":"COMPANHIA ULTRAGAZ S A","lat":-23.50294339,"long":-46.81682796,"cap":1500,"id":30,"categoria":4,"parent_id":12,"name":"Base de Gás Liquefeito de Petróleo"}},
{"type":"Feature","geometry":{"type":"Point","coordinates":[-44.10223105999995,-19.98736348999995]},"properties":{"nome_base":"COPAGAZ - BASE - IBIRITÉ/MG","munic":"IBIRITE","uf":"MG","razao_soci":"COPAGAZ DISTRIBUIDORA DE GÁS S/A.","lat":-19.98736349,"long":-44.10223106,"cap":511.54,"id":30,"categoria":4,"parent_id":12,"name":"Base de Gás Liquefeito de Petróleo"}},
{"type":"Feature","geometry":{"type":"Point","coordinates":[-44.102323619999936,-19.98774475999994]},"properties":{"nome_base":"ULTRAGAZ - BASE - IBIRITE/MG","munic":"IBIRITE","uf":"MG","razao_soci":"COMPANHIA ULTRAGAZ S A","lat":-19.98774476,"long":-44.10232362,"cap":505.8,"id":30,"categoria":4,"parent_id":12,"name":"Base de Gás Liquefeito de Petróleo"}},
{"type":"Feature","geometry":{"type":"Point","coordinates":[-49.09858799999995,-26.855363999999952]},"properties":{"nome_base":"GÁS PONTO COM DISTRIBUIDORA DE GÁS S.A.","munic":"BLUMENAU","uf":"SC","razao_soci":"GÁS PONTO COM DISTRIBUIDORA DE GÁS S.A.","lat":-26.855364,"long":-49.098588,"cap":60,"id":30,"categoria":4,"parent_id":12,"name":"Base de Gás Liquefeito de Petróleo"}}
]}