{"type":"FeatureCollection", "features": [
{"type":"Feature","geometry":{"type":"Point","coordinates":[-56.02085757399993,-15.678991052999947]},"properties":{"Nome":"PE UTE Mário Covas","Estado":"MT","Municipio":"Cuiabá","Transporta":"Gas Ocidente","Classifica":"Existente","Fonte":"Informações Técnicas GasOcidente","categoria":5,"parent_id":39,"id":44,"nome_1":"Ponto de Entrega de Gás"}},
{"type":"Feature","geometry":{"type":"Point","coordinates":[-37.34260802599994,-11.096911035999938]},"properties":{"Nome":"PE Águas Claras","Estado":"SE","Municipio":"Estância","Transporta":"TAG","Classifica":"Existente","Fonte":"Informações Técnicas TAG fev15","categoria":5,"parent_id":39,"id":44,"nome_1":"Ponto de Entrega de Gás"}},
{"type":"Feature","geometry":{"type":"Point","coordinates":[-61.41896411099998,-3.5547222009999473]},"properties":{"Nome":"PE Anamã","Estado":"AM","Municipio":"Anamã","Transporta":"TAG","Classifica":"Existente","Fonte":"Informações Técnicas TAG fev15","categoria":5,"parent_id":39,"id":44,"nome_1":"Ponto de Entrega de Gás"}},
{"type":"Feature","geometry":{"type":"Point","coordinates":[-40.61825379199996,-20.78925856199993]},"properties":{"Nome":"PE Anchieta","Estado":"ES","Municipio":"Anchieta","Transporta":"TAG","Classifica":"Existente","Fonte":"Informações Técnicas TAG fev15","categoria":5,"parent_id":39,"id":44,"nome_1":"Ponto de Entrega de Gás"}},
{"type":"Feature","geometry":{"type":"Point","coordinates":[-61.662840777999975,-3.7108278429999473]},"properties":{"Nome":"PE Anori","Estado":"AM","Municipio":"Anori","Transporta":"TAG","Classifica":"Existente","Fonte":"Informações Técnicas TAG fev15","categoria":5,"parent_id":39,"id":44,"nome_1":"Ponto de Entrega de Gás"}},
{"type":"Feature","geometry":{"type":"Point","coordinates":[-60.03297328899998,-3.1303334599999744]},"properties":{"Nome":"PE Aparecida","Estado":"AM","Municipio":"Aparecida","Transporta":"TAG","Classifica":"Existente","Fonte":"Informações Técnicas TAG fev15","categoria":5,"parent_id":39,"id":44,"nome_1":"Ponto de Entrega de Gás"}},
{"type":"Feature","geometry":{"type":"Point","coordinates":[-38.52753705699996,-3.9314317339999434]},"properties":{"Nome":"PE Aquiraz","Estado":"CE","Municipio":"Aquiraz","Transporta":"TAG","Classifica":"Existente","Fonte":"Informações Técnicas TAG fev15","categoria":5,"parent_id":39,"id":44,"nome_1":"Ponto de Entrega de Gás"}},
{"type":"Feature","geometry":{"type":"Point","coordinates":[-37.06682492099998,-11.001242414999979]},"properties":{"Nome":"PE Aracaju","Estado":"SE","Municipio":"Aracaju","Transporta":"TAG","Classifica":"Existente","Fonte":"Informações Técnicas TAG fev15","categoria":5,"parent_id":39,"id":44,"nome_1":"Ponto de Entrega de Gás"}},
{"type":"Feature","geometry":{"type":"Point","coordinates":[-38.17636530599998,-12.144248984999933]},"properties":{"Nome":"PE Araçás","Estado":"BA","Municipio":"Araçás","Transporta":"TAG","Classifica":"Existente","Fonte":"Informações Técnicas TAG fev15","categoria":5,"parent_id":39,"id":44,"nome_1":"Ponto de Entrega de Gás"}},
{"type":"Feature","geometry":{"type":"Point","coordinates":[-37.77558918799997,-4.58202307199997]},"properties":{"Nome":"PE Aracati","Estado":"CE","Municipio":"Aracati","Transporta":"TAG","Classifica":"Existente","Fonte":"Informações Técnicas TAG fev15","categoria":5,"parent_id":39,"id":44,"nome_1":"Ponto de Entrega de Gás"}},
{"type":"Feature","geometry":{"type":"Point","coordinates":[-38.43234525499997,-12.792121675999965]},"properties":{"Nome":"PE Aratu Residual","Estado":"BA","Municipio":"Simões Filho","Transporta":"TAG","Classifica":"Existente","Fonte":"Informações Técnicas TAG fev15","categoria":5,"parent_id":39,"id":44,"nome_1":"Ponto de Entrega de Gás"}},
{"type":"Feature","geometry":{"type":"Point","coordinates":[-38.43235347799998,-12.79256477399997]},"properties":{"Nome":"PE Aratu-Manati","Estado":"BA","Municipio":"Simões Filho","Transporta":"TAG","Classifica":"Existente","Fonte":"Informações Técnicas TAG fev15","categoria":5,"parent_id":39,"id":44,"nome_1":"Ponto de Entrega de Gás"}},
{"type":"Feature","geometry":{"type":"Point","coordinates":[-43.70097492399998,-21.20887783099994]},"properties":{"Nome":"PE Barbacena","Estado":"MG","Municipio":"Barbacena","Transporta":"NTS","Classifica":"Existente","Fonte":"Informações Técnicas NTS mar19","categoria":5,"parent_id":39,"id":44,"nome_1":"Ponto de Entrega de Gás"}},
{"type":"Feature","geometry":{"type":"Point","coordinates":[-44.17371474999993,-22.592689012999983]},"properties":{"Nome":"PE Barra Mansa II","Estado":"RJ","Municipio":"Barra Mansa","Transporta":"NTS","Classifica":"Existente","Fonte":"Informações Técnicas NTS mar19","categoria":5,"parent_id":39,"id":44,"nome_1":"Ponto de Entrega de Gás"}},
{"type":"Feature","geometry":{"type":"Point","coordinates":[-44.10375506799994,-19.981168237999952]},"properties":{"Nome":"PE Betim II","Estado":"MG","Municipio":"Betim","Transporta":"NTS","Classifica":"Existente","Fonte":"Informações Técnicas NTS mar19","categoria":5,"parent_id":39,"id":44,"nome_1":"Ponto de Entrega de Gás"}},
{"type":"Feature","geometry":{"type":"Point","coordinates":[-46.52669532099998,-23.019088026999952]},"properties":{"Nome":"PE Bragança Paulista","Estado":"SP","Municipio":"Bragança Paulista","Transporta":"NTS","Classifica":"Existente","Fonte":"Informações Técnicas NTS mar19","categoria":5,"parent_id":39,"id":44,"nome_1":"Ponto de Entrega de Gás"}},
{"type":"Feature","geometry":{"type":"Point","coordinates":[-44.09287092399995,-20.226522820999946]},"properties":{"Nome":"PE Brumadinho","Estado":"MG","Municipio":"Brumadinho","Transporta":"NTS","Classifica":"Existente","Fonte":"Informações Técnicas NTS mar19","categoria":5,"parent_id":39,"id":44,"nome_1":"Ponto de Entrega de Gás"}},
{"type":"Feature","geometry":{"type":"Point","coordinates":[-61.215732611999954,-3.2960647689999405]},"properties":{"Nome":"PE Caapiranga","Estado":"AM","Municipio":"Caapiranga","Transporta":"TAG","Classifica":"Existente","Fonte":"Informações Técnicas TAG fev15","categoria":5,"parent_id":39,"id":44,"nome_1":"Ponto de Entrega de Gás"}},
{"type":"Feature","geometry":{"type":"Point","coordinates":[-41.728305999999975,-22.287759999999935]},"properties":{"Nome":"PE Cabiúnas","Estado":"RJ","Municipio":"Macaé","Transporta":"NTS","Classifica":"Existente","Fonte":"Informações Técnicas NTS mar19","categoria":5,"parent_id":39,"id":44,"nome_1":"Ponto de Entrega de Gás"}},
{"type":"Feature","geometry":{"type":"Point","coordinates":[-35.03044961399996,-8.26751926399993]},"properties":{"Nome":"PE Cabo","Estado":"PE","Municipio":"Cabo de Santo Agostinho","Transporta":"TAG","Classifica":"Existente","Fonte":"Informações Técnicas TAG fev15","categoria":5,"parent_id":39,"id":44,"nome_1":"Ponto de Entrega de Gás"}},
{"type":"Feature","geometry":{"type":"Point","coordinates":[-45.62298873299994,-23.10123851399993]},"properties":{"Nome":"PE Caçapava","Estado":"SP","Municipio":"Caçapava","Transporta":"NTS","Classifica":"Existente","Fonte":"Informações Técnicas NTS mar19","categoria":5,"parent_id":39,"id":44,"nome_1":"Ponto de Entrega de Gás"}},
{"type":"Feature","geometry":{"type":"Point","coordinates":[-40.93718696499997,-21.01061376399997]},"properties":{"Nome":"PE Cachoeiro de Itapemirim","Estado":"ES","Municipio":"Itapemirim","Transporta":"TAG","Classifica":"Existente","Fonte":"Informações Técnicas TAG fev15","categoria":5,"parent_id":39,"id":44,"nome_1":"Ponto de Entrega de Gás"}},
{"type":"Feature","geometry":{"type":"Point","coordinates":[-38.33546622199998,-12.657354122999948]},"properties":{"Nome":"PE Camaçari","Estado":"BA","Municipio":"Camaçari","Transporta":"TAG","Classifica":"Existente","Fonte":"Informações Técnicas TAG fev15","categoria":5,"parent_id":39,"id":44,"nome_1":"Ponto de Entrega de Gás"}},
{"type":"Feature","geometry":{"type":"Point","coordinates":[-38.335364881999965,-12.657371953999927]},"properties":{"Nome":"PE Camaçari-Manati","Estado":"BA","Municipio":"Camaçari","Transporta":"TAG","Classifica":"Existente","Fonte":"Informações Técnicas TAG fev15","categoria":5,"parent_id":39,"id":44,"nome_1":"Ponto de Entrega de Gás"}},
{"type":"Feature","geometry":{"type":"Point","coordinates":[-41.35563693399996,-21.708994299999972]},"properties":{"Nome":"PE Campos dos Goytacazes","Estado":"RJ","Municipio":"Campos dos Goytacazes","Transporta":"NTS","Classifica":"Existente","Fonte":"Informações Técnicas NTS mar19","categoria":5,"parent_id":39,"id":44,"nome_1":"Ponto de Entrega de Gás"}},
{"type":"Feature","geometry":{"type":"Point","coordinates":[-38.56786329099998,-12.670221215999959]},"properties":{"Nome":"PE Candeias Residual","Estado":"BA","Municipio":"São Francisco do Conde","Transporta":"TAG","Classifica":"Existente","Fonte":"Informações Técnicas TAG fev15","categoria":5,"parent_id":39,"id":44,"nome_1":"Ponto de Entrega de Gás"}},
{"type":"Feature","geometry":{"type":"Point","coordinates":[-38.567807958999936,-12.670266339999955]},"properties":{"Nome":"PE Candeias-Manati","Estado":"BA","Municipio":"São Francisco do Conde","Transporta":"TAG","Classifica":"Existente","Fonte":"Informações Técnicas TAG fev15","categoria":5,"parent_id":39,"id":44,"nome_1":"Ponto de Entrega de Gás"}},
{"type":"Feature","geometry":{"type":"Point","coordinates":[-46.475235819999966,-23.639671618999955]},"properties":{"Nome":"PE Capuava","Estado":"SP","Municipio":"Mauá","Transporta":"NTS","Classifica":"Existente","Fonte":"Informações Técnicas NTS mar19","categoria":5,"parent_id":39,"id":44,"nome_1":"Ponto de Entrega de Gás"}},
{"type":"Feature","geometry":{"type":"Point","coordinates":[-37.120102593999945,-10.698019949999946]},"properties":{"Nome":"PE Carmópolis","Estado":"SE","Municipio":"Carmópolis","Transporta":"TAG","Classifica":"Existente","Fonte":"Informações Técnicas TAG fev15","categoria":5,"parent_id":39,"id":44,"nome_1":"Ponto de Entrega de Gás"}},
{"type":"Feature","geometry":{"type":"Point","coordinates":[-36.97311261799996,-10.62712043099998]},"properties":{"Nome":"PE Carmópolis II","Estado":"SE","Municipio":"Carmópolis","Transporta":"TAG","Classifica":"Existente","Fonte":"Informações Técnicas TAG fev15","categoria":5,"parent_id":39,"id":44,"nome_1":"Ponto de Entrega de Gás"}},
{"type":"Feature","geometry":{"type":"Point","coordinates":[-38.351725691999945,-12.389446420999946]},"properties":{"Nome":"PE Catu","Estado":"BA","Municipio":"Pojuca","Transporta":"TAG","Classifica":"Existente","Fonte":"Informações Técnicas TAG fev15","categoria":5,"parent_id":39,"id":44,"nome_1":"Ponto de Entrega de Gás"}},
{"type":"Feature","geometry":{"type":"Point","coordinates":[-38.75182871599998,-3.7323138949999475]},"properties":{"Nome":"PE Caucaia","Estado":"CE","Municipio":"Caucaia","Transporta":"TAG","Classifica":"Existente","Fonte":"Informações Técnicas TAG fev15","categoria":5,"parent_id":39,"id":44,"nome_1":"Ponto de Entrega de Gás"}},
{"type":"Feature","geometry":{"type":"Point","coordinates":[-38.488560493999955,-12.629433957999936]},"properties":{"Nome":"PE Cexis","Estado":"BA","Municipio":"Candeias","Transporta":"TAG","Classifica":"Existente","Fonte":"Informações Técnicas TAG fev15","categoria":5,"parent_id":39,"id":44,"nome_1":"Ponto de Entrega de Gás"}},
{"type":"Feature","geometry":{"type":"Point","coordinates":[-44.073451569999975,-22.571672903999968]},"properties":{"Nome":"PE Cidade do Aço","Estado":"RJ","Municipio":"Volta Redonda","Transporta":"NTS","Classifica":"Existente","Fonte":"Informações Técnicas NTS mar19","categoria":5,"parent_id":39,"id":44,"nome_1":"Ponto de Entrega de Gás"}},
{"type":"Feature","geometry":{"type":"Point","coordinates":[-63.157912264999936,-4.101099235999925]},"properties":{"Nome":"PE Coari","Estado":"AM","Municipio":"Coari","Transporta":"TAG","Classifica":"Existente","Fonte":"Informações Técnicas TAG fev15","categoria":5,"parent_id":39,"id":44,"nome_1":"Ponto de Entrega de Gás"}},
{"type":"Feature","geometry":{"type":"Point","coordinates":[-62.03724248399993,-3.8494212699999366]},"properties":{"Nome":"PE Codajás","Estado":"AM","Municipio":"Codajás","Transporta":"TAG","Classifica":"Existente","Fonte":"Informações Técnicas TAG fev15","categoria":5,"parent_id":39,"id":44,"nome_1":"Ponto de Entrega de Gás"}},
{"type":"Feature","geometry":{"type":"Point","coordinates":[-44.90859520699996,-22.668848156999957]},"properties":{"Nome":"PE Cruzeiro","Estado":"SP","Municipio":"Cruzeiro","Transporta":"NTS","Classifica":"Existente","Fonte":"Informações Técnicas NTS mar19","categoria":5,"parent_id":39,"id":44,"nome_1":"Ponto de Entrega de Gás"}},
{"type":"Feature","geometry":{"type":"Point","coordinates":[-38.490117589999954,-12.726165762999926]},"properties":{"Nome":"PE Dow Química","Estado":"BA","Municipio":"Candeias","Transporta":"TAG","Classifica":"Existente","Fonte":"Informações Técnicas TAG fev15","categoria":5,"parent_id":39,"id":44,"nome_1":"Ponto de Entrega de Gás"}},
{"type":"Feature","geometry":{"type":"Point","coordinates":[-43.29580125199993,-22.69190531399994]},"properties":{"Nome":"PE Duque de Caxias","Estado":"RJ","Municipio":"Duque de Caxias","Transporta":"NTS","Classifica":"Existente","Fonte":"Informações Técnicas NTS mar19","categoria":5,"parent_id":39,"id":44,"nome_1":"Ponto de Entrega de Gás"}},
{"type":"Feature","geometry":{"type":"Point","coordinates":[-37.40289527199997,-11.217016054999931]},"properties":{"Nome":"PE Estância","Estado":"SE","Municipio":"Estância","Transporta":"TAG","Classifica":"Existente","Fonte":"Informações Técnicas TAG fev15","categoria":5,"parent_id":39,"id":44,"nome_1":"Ponto de Entrega de Gás"}},
{"type":"Feature","geometry":{"type":"Point","coordinates":[-39.53102786299996,-16.318298309999932]},"properties":{"Nome":"PE Eunápolis","Estado":"BA","Municipio":"Eunápolis","Transporta":"TAG","Classifica":"Existente","Fonte":"Informações Técnicas TAG fev15","categoria":5,"parent_id":39,"id":44,"nome_1":"Ponto de Entrega de Gás"}},
{"type":"Feature","geometry":{"type":"Point","coordinates":[-37.14522303199993,-10.77350578499994]},"properties":{"Nome":"PE FAFEN  II SERGÁS","Estado":"SE","Municipio":"Laranjeiras","Transporta":"TAG","Classifica":"Existente","Fonte":"Informações Técnicas TAG fev15","categoria":5,"parent_id":39,"id":44,"nome_1":"Ponto de Entrega de Gás"}},
{"type":"Feature","geometry":{"type":"Point","coordinates":[-38.335401668999964,-12.657390130999943]},"properties":{"Nome":"PE FAFEN Bahia","Estado":"BA","Municipio":"Camaçari","Transporta":"TAG","Classifica":"Existente","Fonte":"Informações Técnicas TAG fev15","categoria":5,"parent_id":39,"id":44,"nome_1":"Ponto de Entrega de Gás"}},
{"type":"Feature","geometry":{"type":"Point","coordinates":[-37.14487749199998,-10.774983309999982]},"properties":{"Nome":"PE FAFEN EDG","Estado":"SE","Municipio":"Laranjeiras","Transporta":"TAG","Classifica":"Existente","Fonte":"Informações Técnicas TAG fev15","categoria":5,"parent_id":39,"id":44,"nome_1":"Ponto de Entrega de Gás"}},
{"type":"Feature","geometry":{"type":"Point","coordinates":[-37.146868232999964,-10.77395110599997]},"properties":{"Nome":"PE FAFEN-SE","Estado":"SE","Municipio":"Laranjeiras","Transporta":"TAG","Classifica":"Existente","Fonte":"Informações Técnicas TAG fev15","categoria":5,"parent_id":39,"id":44,"nome_1":"Ponto de Entrega de Gás"}},
{"type":"Feature","geometry":{"type":"Point","coordinates":[-37.146868232999964,-10.77395110599997]},"properties":{"Nome":"PE FAFEN-SERGÁS","Estado":"SE","Municipio":"Laranjeiras","Transporta":"TAG","Classifica":"Existente","Fonte":"Informações Técnicas TAG fev15","categoria":5,"parent_id":39,"id":44,"nome_1":"Ponto de Entrega de Gás"}},
{"type":"Feature","geometry":{"type":"Point","coordinates":[-37.855689935999976,-11.851413754999953]},"properties":{"Nome":"PE Fazenda Alvorada","Estado":"BA","Municipio":"Esplanada","Transporta":"TAG","Classifica":"Existente","Fonte":"Informações Técnicas TAG fev15","categoria":5,"parent_id":39,"id":44,"nome_1":"Ponto de Entrega de Gás"}},
{"type":"Feature","geometry":{"type":"Point","coordinates":[-37.88904804099997,-11.896828422999931]},"properties":{"Nome":"PE Fazenda Bálsamo","Estado":"BA","Municipio":"Esplanada","Transporta":"TAG","Classifica":"Existente","Fonte":"Informações Técnicas TAG fev15","categoria":5,"parent_id":39,"id":44,"nome_1":"Ponto de Entrega de Gás"}},
{"type":"Feature","geometry":{"type":"Point","coordinates":[-37.55108360099996,-4.734357246999934]},"properties":{"Nome":"PE Fazenda Belém","Estado":"CE","Municipio":"Aracati","Transporta":"TAG","Classifica":"Existente","Fonte":"Informações Técnicas TAG fev15","categoria":5,"parent_id":39,"id":44,"nome_1":"Ponto de Entrega de Gás"}},
{"type":"Feature","geometry":{"type":"Point","coordinates":[-38.574601231999964,-3.847287966999943]},"properties":{"Nome":"PE Fortaleza","Estado":"CE","Municipio":"Caucaia","Transporta":"TAG","Classifica":"Existente","Fonte":"Informações Técnicas TAG fev15","categoria":5,"parent_id":39,"id":44,"nome_1":"Ponto de Entrega de Gás"}},
{"type":"Feature","geometry":{"type":"Point","coordinates":[-35.02144997499994,-7.561662866999939]},"properties":{"Nome":"PE Goiana","Estado":"PE","Municipio":"Goiana","Transporta":"TAG","Classifica":"Existente","Fonte":"Informações Técnicas TAG fev15","categoria":5,"parent_id":39,"id":44,"nome_1":"Ponto de Entrega de Gás"}},
{"type":"Feature","geometry":{"type":"Point","coordinates":[-35.02131813899996,-7.561713896999947]},"properties":{"Nome":"PE Goiana II","Estado":"PE","Municipio":"Goiana","Transporta":"TAG","Classifica":"Existente","Fonte":"Informações Técnicas TAG fev15","categoria":5,"parent_id":39,"id":44,"nome_1":"Ponto de Entrega de Gás"}},
{"type":"Feature","geometry":{"type":"Point","coordinates":[-35.24495388699995,-6.299426335999954]},"properties":{"Nome":"PE Goianinha","Estado":"RN","Municipio":"Goianinha","Transporta":"TAG","Classifica":"Existente","Fonte":"Informações Técnicas TAG fev15","categoria":5,"parent_id":39,"id":44,"nome_1":"Ponto de Entrega de Gás"}},
{"type":"Feature","geometry":{"type":"Point","coordinates":[-42.924683295999955,-22.598851293999928]},"properties":{"Nome":"PE Guapimirim","Estado":"RJ","Municipio":"Guapimirim","Transporta":"NTS","Classifica":"Existente","Fonte":"Informações Técnicas NTS mar19","categoria":5,"parent_id":39,"id":44,"nome_1":"Ponto de Entrega de Gás"}},
{"type":"Feature","geometry":{"type":"Point","coordinates":[-45.144484416999944,-22.834360825999966]},"properties":{"Nome":"PE Guaratinguetá","Estado":"SP","Municipio":"Lorena","Transporta":"NTS","Classifica":"Existente","Fonte":"Informações Técnicas NTS mar19","categoria":5,"parent_id":39,"id":44,"nome_1":"Ponto de Entrega de Gás"}},
{"type":"Feature","geometry":{"type":"Point","coordinates":[-35.53786266299994,-5.786321758999975]},"properties":{"Nome":"PE Ielmo Marinho","Estado":"RN","Municipio":"Ielmo Marinho","Transporta":"TAG","Classifica":"Existente","Fonte":"Informações Técnicas TAG fev15","categoria":5,"parent_id":39,"id":44,"nome_1":"Ponto de Entrega de Gás"}},
{"type":"Feature","geometry":{"type":"Point","coordinates":[-34.94453364699996,-7.821946543999957]},"properties":{"Nome":"PE Igarassu","Estado":"PE","Municipio":"Igarassu","Transporta":"TAG","Classifica":"Existente","Fonte":"Informações Técnicas TAG fev15","categoria":5,"parent_id":39,"id":44,"nome_1":"Ponto de Entrega de Gás"}},
{"type":"Feature","geometry":{"type":"Point","coordinates":[-34.94618896099996,-7.855435055999976]},"properties":{"Nome":"PE Igarassu II","Estado":"PE","Municipio":"Igarassu","Transporta":"TAG","Classifica":"Existente","Fonte":"Informações Técnicas TAG fev15","categoria":5,"parent_id":39,"id":44,"nome_1":"Ponto de Entrega de Gás"}},
{"type":"Feature","geometry":{"type":"Point","coordinates":[-60.16580855799998,-3.2654188559999398]},"properties":{"Nome":"PE Iranduba","Estado":"AM","Municipio":"Iranduba","Transporta":"TAG","Classifica":"Existente","Fonte":"Informações Técnicas TAG fev15","categoria":5,"parent_id":39,"id":44,"nome_1":"Ponto de Entrega de Gás"}},
{"type":"Feature","geometry":{"type":"Point","coordinates":[-39.322626484999944,-14.821984381999982]},"properties":{"Nome":"PE Itabuna","Estado":"BA","Municipio":"Itabuna","Transporta":"TAG","Classifica":"Existente","Fonte":"Informações Técnicas TAG fev15","categoria":5,"parent_id":39,"id":44,"nome_1":"Ponto de Entrega de Gás"}},
{"type":"Feature","geometry":{"type":"Point","coordinates":[-37.28205233299997,-11.003882854999972]},"properties":{"Nome":"PE Itaporanga","Estado":"SE","Municipio":"Itaporanga","Transporta":"TAG","Classifica":"Existente","Fonte":"Informações Técnicas TAG fev15","categoria":5,"parent_id":39,"id":44,"nome_1":"Ponto de Entrega de Gás"}},
{"type":"Feature","geometry":{"type":"Point","coordinates":[-35.03210777999993,-8.089980312999955]},"properties":{"Nome":"PE Jaboatão","Estado":"PE","Municipio":"Jaboatão","Transporta":"TAG","Classifica":"Existente","Fonte":"Informações Técnicas TAG fev15","categoria":5,"parent_id":39,"id":44,"nome_1":"Ponto de Entrega de Gás"}},
{"type":"Feature","geometry":{"type":"Point","coordinates":[-43.61281299999996,-22.64204030899998]},"properties":{"Nome":"PE Japeri","Estado":"RJ","Municipio":"Japeri","Transporta":"NTS","Classifica":"Existente","Fonte":"Informações Técnicas NTS mar19","categoria":5,"parent_id":39,"id":44,"nome_1":"Ponto de Entrega de Gás"}},
{"type":"Feature","geometry":{"type":"Point","coordinates":[-43.61261650399996,-22.642228279999927]},"properties":{"Nome":"PE Japeri II","Estado":"RJ","Municipio":"Japeri","Transporta":"NTS","Classifica":"Existente","Fonte":"Informações Técnicas NTS mar19","categoria":5,"parent_id":39,"id":44,"nome_1":"Ponto de Entrega de Gás"}},
{"type":"Feature","geometry":{"type":"Point","coordinates":[-43.49515825599997,-21.627081621999935]},"properties":{"Nome":"PE Juiz de Fora","Estado":"MG","Municipio":"Juiz de Fora","Transporta":"NTS","Classifica":"Existente","Fonte":"Informações Técnicas NTS mar19","categoria":5,"parent_id":39,"id":44,"nome_1":"Ponto de Entrega de Gás"}},
{"type":"Feature","geometry":{"type":"Point","coordinates":[-39.91019279699998,-19.630906994999975]},"properties":{"Nome":"PE Linhares","Estado":"ES","Municipio":"Linhares","Transporta":"TAG","Classifica":"Existente","Fonte":"Informações Técnicas TAG fev15","categoria":5,"parent_id":39,"id":44,"nome_1":"Ponto de Entrega de Gás"}},
{"type":"Feature","geometry":{"type":"Point","coordinates":[-45.07665851799993,-22.793205415999978]},"properties":{"Nome":"PE Lorena","Estado":"SP","Municipio":"Lorena","Transporta":"NTS","Classifica":"Existente","Fonte":"Informações Técnicas NTS mar19","categoria":5,"parent_id":39,"id":44,"nome_1":"Ponto de Entrega de Gás"}},
{"type":"Feature","geometry":{"type":"Point","coordinates":[-35.38847830299994,-5.904899227999977]},"properties":{"Nome":"PE Macaíba","Estado":"RN","Municipio":"Macaíba","Transporta":"TAG","Classifica":"Existente","Fonte":"Informações Técnicas TAG fev15","categoria":5,"parent_id":39,"id":44,"nome_1":"Ponto de Entrega de Gás"}},
{"type":"Feature","geometry":{"type":"Point","coordinates":[-35.14089828899995,-6.8393709769999305]},"properties":{"Nome":"PE Mamanguape","Estado":"PB","Municipio":"Mamanguape","Transporta":"TAG","Classifica":"Existente","Fonte":"Informações Técnicas TAG fev15","categoria":5,"parent_id":39,"id":44,"nome_1":"Ponto de Entrega de Gás"}},
{"type":"Feature","geometry":{"type":"Point","coordinates":[-60.65557886099998,-3.2823273039999776]},"properties":{"Nome":"PE Manacapuru","Estado":"AM","Municipio":"Manacapuru","Transporta":"TAG","Classifica":"Existente","Fonte":"Informações Técnicas TAG fev15","categoria":5,"parent_id":39,"id":44,"nome_1":"Ponto de Entrega de Gás"}},
{"type":"Feature","geometry":{"type":"Point","coordinates":[-38.569622702999936,-12.669319113999961]},"properties":{"Nome":"PE Manati UPGN Candeias","Estado":"BA","Municipio":"São Francisco do Conde","Transporta":"TAG","Classifica":"Existente","Fonte":"Informações Técnicas TAG fev15","categoria":5,"parent_id":39,"id":44,"nome_1":"Ponto de Entrega de Gás"}},
{"type":"Feature","geometry":{"type":"Point","coordinates":[-37.127625999999964,-10.888312999999926]},"properties":{"Nome":"PE Manguinhos","Estado":"SE","Municipio":"Socorro","Transporta":"TAG","Classifica":"Existente","Fonte":"Informações Técnicas TAG fev15","categoria":5,"parent_id":39,"id":44,"nome_1":"Ponto de Entrega de Gás"}},
{"type":"Feature","geometry":{"type":"Point","coordinates":[-35.90681146199995,-9.608037085999968]},"properties":{"Nome":"PE Marechal Deodoro","Estado":"AL","Municipio":"Marechal Deodoro","Transporta":"TAG","Classifica":"Existente","Fonte":"Informações Técnicas TAG fev15","categoria":5,"parent_id":39,"id":44,"nome_1":"Ponto de Entrega de Gás"}},
{"type":"Feature","geometry":{"type":"Point","coordinates":[-59.93052812399998,-3.1214647089999517]},"properties":{"Nome":"PE Mauá","Estado":"AM","Municipio":"Mauá","Transporta":"TAG","Classifica":"Existente","Fonte":"Informações Técnicas TAG fev15","categoria":5,"parent_id":39,"id":44,"nome_1":"Ponto de Entrega de Gás"}},
{"type":"Feature","geometry":{"type":"Point","coordinates":[-37.339223654999955,-5.1055189119999795]},"properties":{"Nome":"PE Mossoró","Estado":"RN","Municipio":"Mossoró","Transporta":"TAG","Classifica":"Existente","Fonte":"Informações Técnicas TAG fev15","categoria":5,"parent_id":39,"id":44,"nome_1":"Ponto de Entrega de Gás"}},
{"type":"Feature","geometry":{"type":"Point","coordinates":[-39.85940193199997,-18.07922138799995]},"properties":{"Nome":"PE Mucuri","Estado":"BA","Municipio":"Mucuri","Transporta":"TAG","Classifica":"Existente","Fonte":"Informações Técnicas TAG fev15","categoria":5,"parent_id":39,"id":44,"nome_1":"Ponto de Entrega de Gás"}},
{"type":"Feature","geometry":{"type":"Point","coordinates":[-38.47363057499996,-4.127380529999925]},"properties":{"Nome":"PE Pacajus","Estado":"CE","Municipio":"Horizonte","Transporta":"TAG","Classifica":"Existente","Fonte":"Informações Técnicas TAG fev15","categoria":5,"parent_id":39,"id":44,"nome_1":"Ponto de Entrega de Gás"}},
{"type":"Feature","geometry":{"type":"Point","coordinates":[-43.70266213499997,-22.633986211999968]},"properties":{"Nome":"PE Paracambi","Estado":"RJ","Municipio":"Paracambi","Transporta":"NTS","Classifica":"Existente","Fonte":"Informações Técnicas NTS mar19","categoria":5,"parent_id":39,"id":44,"nome_1":"Ponto de Entrega de Gás"}},
{"type":"Feature","geometry":{"type":"Point","coordinates":[-34.95084607599995,-7.9189027019999685]},"properties":{"Nome":"PE Paulista","Estado":"PE","Municipio":"Paulista","Transporta":"TAG","Classifica":"Existente","Fonte":"Informações Técnicas TAG fev15","categoria":5,"parent_id":39,"id":44,"nome_1":"Ponto de Entrega de Gás"}},
{"type":"Feature","geometry":{"type":"Point","coordinates":[-38.81157608199993,-3.5452873409999484]},"properties":{"Nome":"PE Pecém","Estado":"CE","Municipio":"Pecém","Transporta":"TAG","Classifica":"Existente","Fonte":"Informações Técnicas TAG fev15","categoria":5,"parent_id":39,"id":44,"nome_1":"Ponto de Entrega de Gás"}},
{"type":"Feature","geometry":{"type":"Point","coordinates":[-35.02216432299997,-7.356485154999973]},"properties":{"Nome":"PE Pedras de Fogo","Estado":"PB","Municipio":"Pedras de Fogo","Transporta":"TAG","Classifica":"Existente","Fonte":"Informações Técnicas TAG fev15","categoria":5,"parent_id":39,"id":44,"nome_1":"Ponto de Entrega de Gás"}},
{"type":"Feature","geometry":{"type":"Point","coordinates":[-36.58857379999995,-10.240970793999963]},"properties":{"Nome":"PE Penedo","Estado":"AL","Municipio":"Penedo","Transporta":"TAG","Classifica":"Existente","Fonte":"Informações Técnicas TAG fev15","categoria":5,"parent_id":39,"id":44,"nome_1":"Ponto de Entrega de Gás"}},
{"type":"Feature","geometry":{"type":"Point","coordinates":[-45.41979778399997,-22.99932840799994]},"properties":{"Nome":"PE Pindamonhangaba II","Estado":"SP","Municipio":"Pindamonhangaba","Transporta":"NTS","Classifica":"Existente","Fonte":"Informações Técnicas NTS mar19","categoria":5,"parent_id":39,"id":44,"nome_1":"Ponto de Entrega de Gás"}},
{"type":"Feature","geometry":{"type":"Point","coordinates":[-43.852639505999946,-22.59701188799994]},"properties":{"Nome":"PE Piraí","Estado":"RJ","Municipio":"Piraí","Transporta":"NTS","Classifica":"Existente","Fonte":"Informações Técnicas NTS mar19","categoria":5,"parent_id":39,"id":44,"nome_1":"Ponto de Entrega de Gás"}},
{"type":"Feature","geometry":{"type":"Point","coordinates":[-46.47529260399995,-23.639490464999938]},"properties":{"Nome":"PE RECAP II","Estado":"SP","Municipio":"Mauá","Transporta":"NTS","Classifica":"Existente","Fonte":"Informações Técnicas NTS mar19","categoria":5,"parent_id":39,"id":44,"nome_1":"Ponto de Entrega de Gás"}},
{"type":"Feature","geometry":{"type":"Point","coordinates":[-34.995986614999936,-8.046545323999965]},"properties":{"Nome":"PE Recife","Estado":"PE","Municipio":"Recife","Transporta":"TAG","Classifica":"Existente","Fonte":"Informações Técnicas TAG fev15","categoria":5,"parent_id":39,"id":44,"nome_1":"Ponto de Entrega de Gás"}},
{"type":"Feature","geometry":{"type":"Point","coordinates":[-43.25224615399998,-22.711149786999954]},"properties":{"Nome":"PE REDUC","Estado":"RJ","Municipio":"Duque de Caxias","Transporta":"NTS","Classifica":"Existente","Fonte":"Informações Técnicas NTS mar19","categoria":5,"parent_id":39,"id":44,"nome_1":"Ponto de Entrega de Gás"}},
{"type":"Feature","geometry":{"type":"Point","coordinates":[-44.10377453999996,-19.981105084999967]},"properties":{"Nome":"PE REGAP I","Estado":"MG","Municipio":"Betim","Transporta":"NTS","Classifica":"Existente","Fonte":"Informações Técnicas NTS mar19","categoria":5,"parent_id":39,"id":44,"nome_1":"Ponto de Entrega de Gás"}},
{"type":"Feature","geometry":{"type":"Point","coordinates":[-44.10385069299997,-19.981159684999966]},"properties":{"Nome":"PE REGAP II","Estado":"MG","Municipio":"Betim","Transporta":"NTS","Classifica":"Existente","Fonte":"Informações Técnicas NTS mar19","categoria":5,"parent_id":39,"id":44,"nome_1":"Ponto de Entrega de Gás"}},
{"type":"Feature","geometry":{"type":"Point","coordinates":[-59.95413863999994,-3.1474738359999606]},"properties":{"Nome":"PE REMAN","Estado":"AM","Municipio":"Manaus","Transporta":"TAG","Classifica":"Existente","Fonte":"Informações Técnicas TAG fev15","categoria":5,"parent_id":39,"id":44,"nome_1":"Ponto de Entrega de Gás"}},
{"type":"Feature","geometry":{"type":"Point","coordinates":[-44.448625076999974,-22.60440072199998]},"properties":{"Nome":"PE Resende II","Estado":"RJ","Municipio":"Resende","Transporta":"NTS","Classifica":"Existente","Fonte":"Informações Técnicas NTS mar19","categoria":5,"parent_id":39,"id":44,"nome_1":"Ponto de Entrega de Gás"}},
{"type":"Feature","geometry":{"type":"Point","coordinates":[-45.81304677899993,-23.207997896999927]},"properties":{"Nome":"PE REVAP II","Estado":"SP","Municipio":"São José dos Campos","Transporta":"NTS","Classifica":"Existente","Fonte":"Informações Técnicas NTS mar19","categoria":5,"parent_id":39,"id":44,"nome_1":"Ponto de Entrega de Gás"}},
{"type":"Feature","geometry":{"type":"Point","coordinates":[-43.46242746599995,-22.17747305699993]},"properties":{"Nome":"PE Rio das Flores","Estado":"RJ","Municipio":"Rio das Flores","Transporta":"NTS","Classifica":"Existente","Fonte":"Informações Técnicas NTS mar19","categoria":5,"parent_id":39,"id":44,"nome_1":"Ponto de Entrega de Gás"}},
{"type":"Feature","geometry":{"type":"Point","coordinates":[-35.837202668999964,-9.442810854999948]},"properties":{"Nome":"PE Rio Largo","Estado":"AL","Municipio":"Rio Largo","Transporta":"TAG","Classifica":"Existente","Fonte":"Informações Técnicas TAG fev15","categoria":5,"parent_id":39,"id":44,"nome_1":"Ponto de Entrega de Gás"}},
{"type":"Feature","geometry":{"type":"Point","coordinates":[-38.57033192399996,-12.668703104999963]},"properties":{"Nome":"PE RLAM 14\"","Estado":"BA","Municipio":"São Francisco do Conde","Transporta":"TAG","Classifica":"Existente","Fonte":"Informações Técnicas TAG fev15","categoria":5,"parent_id":39,"id":44,"nome_1":"Ponto de Entrega de Gás"}},
{"type":"Feature","geometry":{"type":"Point","coordinates":[-38.569625377999955,-12.668370316999926]},"properties":{"Nome":"PE RLAM 6\"","Estado":"BA","Municipio":"São Francisco do Conde","Transporta":"TAG","Classifica":"Existente","Fonte":"Informações Técnicas TAG fev15","categoria":5,"parent_id":39,"id":44,"nome_1":"Ponto de Entrega de Gás"}},
{"type":"Feature","geometry":{"type":"Point","coordinates":[-35.00333342299996,-8.394734505999963]},"properties":{"Nome":"PE RNEST","Estado":"PE","Municipio":"Ipojuca","Transporta":"TAG","Classifica":"Existente","Fonte":"Informações Técnicas TAG fev15","categoria":5,"parent_id":39,"id":44,"nome_1":"Ponto de Entrega de Gás"}},
{"type":"Feature","geometry":{"type":"Point","coordinates":[-46.422611856999936,-23.864393931999928]},"properties":{"Nome":"PE RPBC","Estado":"SP","Municipio":"Cubatão","Transporta":"NTS","Classifica":"Existente","Fonte":"Informações Técnicas NTS mar19","categoria":5,"parent_id":39,"id":44,"nome_1":"Ponto de Entrega de Gás"}},
{"type":"Feature","geometry":{"type":"Point","coordinates":[-35.007013649999976,-7.185456729999942]},"properties":{"Nome":"PE Santa Rita CG","Estado":"PB","Municipio":"Santa Rita","Transporta":"TAG","Classifica":"Existente","Fonte":"Informações Técnicas TAG fev15","categoria":5,"parent_id":39,"id":44,"nome_1":"Ponto de Entrega de Gás"}},
{"type":"Feature","geometry":{"type":"Point","coordinates":[-35.00722504199996,-7.18733397699998]},"properties":{"Nome":"PE Santa Rita JP","Estado":"PB","Municipio":"Santa Rita","Transporta":"TAG","Classifica":"Existente","Fonte":"Informações Técnicas TAG fev15","categoria":5,"parent_id":39,"id":44,"nome_1":"Ponto de Entrega de Gás"}},
{"type":"Feature","geometry":{"type":"Point","coordinates":[-46.513338068999985,-23.792678036999973]},"properties":{"Nome":"PE São Bernardo do Campo","Estado":"SP","Municipio":"São Bernardo do Campo","Transporta":"NTS","Classifica":"Existente","Fonte":"Informações Técnicas NTS mar19","categoria":5,"parent_id":39,"id":44,"nome_1":"Ponto de Entrega de Gás"}},
{"type":"Feature","geometry":{"type":"Point","coordinates":[-46.50587668999998,-23.81303117599998]},"properties":{"Nome":"PE São Bernardo do Campo II","Estado":"SP","Municipio":"São Bernardo do Campo","Transporta":"NTS","Classifica":"Existente","Fonte":"Informações Técnicas NTS mar19","categoria":5,"parent_id":39,"id":44,"nome_1":"Ponto de Entrega de Gás"}},
{"type":"Feature","geometry":{"type":"Point","coordinates":[-43.93174088599994,-20.617728803999967]},"properties":{"Nome":"PE São Brás Do Suaçuí II","Estado":"MG","Municipio":"São Brás do Suaçuí","Transporta":"NTS","Classifica":"Existente","Fonte":"Informações Técnicas NTS mar19","categoria":5,"parent_id":39,"id":44,"nome_1":"Ponto de Entrega de Gás"}},
{"type":"Feature","geometry":{"type":"Point","coordinates":[-45.812382996999986,-23.206501917999958]},"properties":{"Nome":"PE São José dos Campos","Estado":"SP","Municipio":"São José dos Campos","Transporta":"NTS","Classifica":"Existente","Fonte":"Informações Técnicas NTS mar19","categoria":5,"parent_id":39,"id":44,"nome_1":"Ponto de Entrega de Gás"}},
{"type":"Feature","geometry":{"type":"Point","coordinates":[-39.91586450999995,-18.70945166299998]},"properties":{"Nome":"PE São Mateus","Estado":"ES","Municipio":"São Mateus","Transporta":"TAG","Classifica":"Existente","Fonte":"Informações Técnicas TAG fev15","categoria":5,"parent_id":39,"id":44,"nome_1":"Ponto de Entrega de Gás"}},
{"type":"Feature","geometry":{"type":"Point","coordinates":[-36.14198996199997,-9.764895918999969]},"properties":{"Nome":"PE São Miguel dos Campos","Estado":"AL","Municipio":"São Miguel dos Campos","Transporta":"TAG","Classifica":"Existente","Fonte":"Informações Técnicas TAG fev15","categoria":5,"parent_id":39,"id":44,"nome_1":"Ponto de Entrega de Gás"}},
{"type":"Feature","geometry":{"type":"Point","coordinates":[-39.837517401999946,-19.60056347099993]},"properties":{"Nome":"PE SDV-02","Estado":"ES","Municipio":"Linhares","Transporta":"TAG","Classifica":"Existente","Fonte":"Informações Técnicas TAG fev15","categoria":5,"parent_id":39,"id":44,"nome_1":"Ponto de Entrega de Gás"}},
{"type":"Feature","geometry":{"type":"Point","coordinates":[-37.13435399999997,-10.862391999999943]},"properties":{"Nome":"PE Socorro","Estado":"SE","Municipio":"Nossa Senhora do Socorro","Transporta":"TAG","Classifica":"Existente","Fonte":"Informações Técnicas TAG fev15","categoria":5,"parent_id":39,"id":44,"nome_1":"Ponto de Entrega de Gás"}},
{"type":"Feature","geometry":{"type":"Point","coordinates":[-35.03954872199995,-8.36833335199998]},"properties":{"Nome":"PE Suape (GASALP)","Estado":"PE","Municipio":"Ipojuca","Transporta":"TAG","Classifica":"Existente","Fonte":"Informações Técnicas TAG fev15","categoria":5,"parent_id":39,"id":44,"nome_1":"Ponto de Entrega de Gás"}},
{"type":"Feature","geometry":{"type":"Point","coordinates":[-35.03954872199995,-8.36833335199998]},"properties":{"Nome":"PE Suape (Pilar-Ipojuca)","Estado":"PE","Municipio":"Ipojuca","Transporta":"TAG","Classifica":"Existente","Fonte":"Informações Técnicas TAG fev15","categoria":5,"parent_id":39,"id":44,"nome_1":"Ponto de Entrega de Gás"}},
{"type":"Feature","geometry":{"type":"Point","coordinates":[-46.26085164899996,-23.527064465999956]},"properties":{"Nome":"PE Suzano","Estado":"SP","Municipio":"Suzano","Transporta":"NTS","Classifica":"Existente","Fonte":"Informações Técnicas NTS mar19","categoria":5,"parent_id":39,"id":44,"nome_1":"Ponto de Entrega de Gás"}},
{"type":"Feature","geometry":{"type":"Point","coordinates":[-45.574666579999985,-23.095234208999955]},"properties":{"Nome":"PE Taubaté","Estado":"SP","Municipio":"Taubaté","Transporta":"NTS","Classifica":"Existente","Fonte":"Informações Técnicas NTS mar19","categoria":5,"parent_id":39,"id":44,"nome_1":"Ponto de Entrega de Gás"}},
{"type":"Feature","geometry":{"type":"Point","coordinates":[-41.72573599999998,-22.282798999999955]},"properties":{"Nome":"PE TECAB","Estado":"RJ","Municipio":"Macaé","Transporta":"NTS","Classifica":"Existente","Fonte":"Informações Técnicas NTS mar19","categoria":5,"parent_id":39,"id":44,"nome_1":"Ponto de Entrega de Gás"}},
{"type":"Feature","geometry":{"type":"Point","coordinates":[-60.033041666999964,-3.1304611109999314]},"properties":{"Nome":"PE UTE Aparecida","Estado":"AM","Municipio":"Aparecida","Transporta":"TAG","Classifica":"Existente","Fonte":"Informações Técnicas TAG fev15","categoria":5,"parent_id":39,"id":44,"nome_1":"Ponto de Entrega de Gás"}},
{"type":"Feature","geometry":{"type":"Point","coordinates":[-43.611497260999954,-22.643221138999934]},"properties":{"Nome":"PE UTE Baixada Fluminense","Estado":"RJ","Municipio":"Japeri","Transporta":"NTS","Classifica":"Existente","Fonte":"Informações Técnicas NTS mar19","categoria":5,"parent_id":39,"id":44,"nome_1":"Ponto de Entrega de Gás"}},
{"type":"Feature","geometry":{"type":"Point","coordinates":[-38.33543850299998,-12.657390222999936]},"properties":{"Nome":"PE UTE CHESF","Estado":"BA","Municipio":"Camaçari","Transporta":"TAG","Classifica":"Existente","Fonte":"Informações Técnicas TAG fev15","categoria":5,"parent_id":39,"id":44,"nome_1":"Ponto de Entrega de Gás"}},
{"type":"Feature","geometry":{"type":"Point","coordinates":[-46.43060663699998,-23.87393491199998]},"properties":{"Nome":"PE UTE Cubatão","Estado":"SP","Municipio":"Cubatão","Transporta":"NTS","Classifica":"Existente","Fonte":"Informações Técnicas NTS mar19","categoria":5,"parent_id":39,"id":44,"nome_1":"Ponto de Entrega de Gás"}},
{"type":"Feature","geometry":{"type":"Point","coordinates":[-44.10365974899997,-19.98112257699995]},"properties":{"Nome":"PE UTE Ibirité","Estado":"MG","Municipio":"Betim","Transporta":"NTS","Classifica":"Existente","Fonte":"Informações Técnicas NTS mar19","categoria":5,"parent_id":39,"id":44,"nome_1":"Ponto de Entrega de Gás"}},
{"type":"Feature","geometry":{"type":"Point","coordinates":[-38.85804293299998,-3.6760335169999507]},"properties":{"Nome":"PE UTE José de Alencar","Estado":"CE","Municipio":"Caucaia","Transporta":"TAG","Classifica":"Existente","Fonte":"Informações Técnicas TAG fev15","categoria":5,"parent_id":39,"id":44,"nome_1":"Ponto de Entrega de Gás"}},
{"type":"Feature","geometry":{"type":"Point","coordinates":[-43.49299721899996,-21.717912316999957]},"properties":{"Nome":"PE UTE Juiz de Fora","Estado":"MG","Municipio":"Juiz de Fora","Transporta":"NTS","Classifica":"Existente","Fonte":"Informações Técnicas NTS mar19","categoria":5,"parent_id":39,"id":44,"nome_1":"Ponto de Entrega de Gás"}},
{"type":"Feature","geometry":{"type":"Point","coordinates":[-39.79986075099998,-19.53633185999996]},"properties":{"Nome":"PE UTE Linhares","Estado":"ES","Municipio":"Linhares","Transporta":"TAG","Classifica":"Existente","Fonte":"Informações Técnicas TAG fev15","categoria":5,"parent_id":39,"id":44,"nome_1":"Ponto de Entrega de Gás"}},
{"type":"Feature","geometry":{"type":"Point","coordinates":[-41.82078515799998,-22.352862303999927]},"properties":{"Nome":"PE UTE Mário Lago","Estado":"RJ","Municipio":"Macaé","Transporta":"NTS","Classifica":"Existente","Fonte":"Informações Técnicas NTS mar19","categoria":5,"parent_id":39,"id":44,"nome_1":"Ponto de Entrega de Gás"}},
{"type":"Feature","geometry":{"type":"Point","coordinates":[-59.930555555999945,-3.1214805559999377]},"properties":{"Nome":"PE UTE Mauá","Estado":"AM","Municipio":"Mauá","Transporta":"TAG","Classifica":"Existente","Fonte":"Informações Técnicas TAG fev15","categoria":5,"parent_id":39,"id":44,"nome_1":"Ponto de Entrega de Gás"}},
{"type":"Feature","geometry":{"type":"Point","coordinates":[-41.82080535199998,-22.352419660999942]},"properties":{"Nome":"PE UTE Norte Fluminense","Estado":"RJ","Municipio":"Macaé","Transporta":"NTS","Classifica":"Existente","Fonte":"Informações Técnicas NTS mar19","categoria":5,"parent_id":39,"id":44,"nome_1":"Ponto de Entrega de Gás"}},
{"type":"Feature","geometry":{"type":"Point","coordinates":[-38.33556291399998,-12.657485416999975]},"properties":{"Nome":"PE UTE Rômulo Almeida","Estado":"BA","Municipio":"Camaçari","Transporta":"TAG","Classifica":"Existente","Fonte":"Informações Técnicas TAG fev15","categoria":5,"parent_id":39,"id":44,"nome_1":"Ponto de Entrega de Gás"}},
{"type":"Feature","geometry":{"type":"Point","coordinates":[-36.81963419699997,-5.383162994999964]},"properties":{"Nome":"PE UTE Termoaçu","Estado":"RN","Municipio":"Alto do Rodrigues / Serra do Mel","Transporta":"TAG","Classifica":"Existente","Fonte":"Informações Técnicas TAG fev15","categoria":5,"parent_id":39,"id":44,"nome_1":"Ponto de Entrega de Gás"}},
{"type":"Feature","geometry":{"type":"Point","coordinates":[-38.56971951199995,-12.668714660999967]},"properties":{"Nome":"PE UTE Termobahia","Estado":"BA","Municipio":"Candeias","Transporta":"TAG","Classifica":"Existente","Fonte":"Informações Técnicas TAG fev15","categoria":5,"parent_id":39,"id":44,"nome_1":"Ponto de Entrega de Gás"}},
{"type":"Feature","geometry":{"type":"Point","coordinates":[-38.870143507999956,-3.6920031709999535]},"properties":{"Nome":"PE UTE Termoceará","Estado":"CE","Municipio":"Caucaia","Transporta":"TAG","Classifica":"Existente","Fonte":"Informações Técnicas TAG fev15","categoria":5,"parent_id":39,"id":44,"nome_1":"Ponto de Entrega de Gás"}},
{"type":"Feature","geometry":{"type":"Point","coordinates":[-38.86358678299996,-3.681183196999939]},"properties":{"Nome":"PE UTE Termofortaleza","Estado":"CE","Municipio":"Caucaia","Transporta":"TAG","Classifica":"Existente","Fonte":"Informações Técnicas TAG fev15","categoria":5,"parent_id":39,"id":44,"nome_1":"Ponto de Entrega de Gás"}},
{"type":"Feature","geometry":{"type":"Point","coordinates":[-34.966071246999945,-8.403823823999971]},"properties":{"Nome":"PE UTE Termope","Estado":"PE","Municipio":"Ipojuca","Transporta":"TAG","Classifica":"Existente","Fonte":"Informações Técnicas TAG fev15","categoria":5,"parent_id":39,"id":44,"nome_1":"Ponto de Entrega de Gás"}},
{"type":"Feature","geometry":{"type":"Point","coordinates":[-43.25233569699998,-22.710997241999962]},"properties":{"Nome":"PE UTE Termorio","Estado":"RJ","Municipio":"Duque de Caxias","Transporta":"NTS","Classifica":"Existente","Fonte":"Informações Técnicas NTS mar19","categoria":5,"parent_id":39,"id":44,"nome_1":"Ponto de Entrega de Gás"}},
{"type":"Feature","geometry":{"type":"Point","coordinates":[-43.25233569699998,-22.710997241999962]},"properties":{"Nome":"PE UTE Termorio II","Estado":"RJ","Municipio":"Duque de Caxias","Transporta":"NTS","Classifica":"Existente","Fonte":"Informações Técnicas NTS mar19","categoria":5,"parent_id":39,"id":44,"nome_1":"Ponto de Entrega de Gás"}},
{"type":"Feature","geometry":{"type":"Point","coordinates":[-40.249089056999935,-20.26153777199994]},"properties":{"Nome":"PE Vale","Estado":"ES","Municipio":"Vitória","Transporta":"TAG","Classifica":"Existente","Fonte":"Informações Técnicas TAG fev15","categoria":5,"parent_id":39,"id":44,"nome_1":"Ponto de Entrega de Gás"}},
{"type":"Feature","geometry":{"type":"Point","coordinates":[-39.521623320999936,-16.285551019999957]},"properties":{"Nome":"PE Veracel","Estado":"BA","Municipio":"Eunápolis","Transporta":"TAG","Classifica":"Existente","Fonte":"Informações Técnicas TAG fev15","categoria":5,"parent_id":39,"id":44,"nome_1":"Ponto de Entrega de Gás"}},
{"type":"Feature","geometry":{"type":"Point","coordinates":[-40.47869691599993,-20.38695985499993]},"properties":{"Nome":"PE Viana","Estado":"ES","Municipio":"Viana","Transporta":"TAG","Classifica":"Existente","Fonte":"Informações Técnicas TAG fev15","categoria":5,"parent_id":39,"id":44,"nome_1":"Ponto de Entrega de Gás"}},
{"type":"Feature","geometry":{"type":"Point","coordinates":[-40.24903190599997,-20.26157431799993]},"properties":{"Nome":"PE Vitória","Estado":"ES","Municipio":"Vitória","Transporta":"TAG","Classifica":"Existente","Fonte":"Informações Técnicas TAG fev15","categoria":5,"parent_id":39,"id":44,"nome_1":"Ponto de Entrega de Gás"}},
{"type":"Feature","geometry":{"type":"Point","coordinates":[-44.082797065999955,-22.508639029999927]},"properties":{"Nome":"PE Volta Redonda","Estado":"RJ","Municipio":"Volta Redonda","Transporta":"NTS","Classifica":"Existente","Fonte":"Informações Técnicas NTS mar19","categoria":5,"parent_id":39,"id":44,"nome_1":"Ponto de Entrega de Gás"}},
{"type":"Feature","geometry":{"type":"Point","coordinates":[-47.29559278499994,-22.679507702999956]},"properties":{"Nome":"PE Americana","Estado":"SP","Municipio":"Americana","Transporta":"TBG","Classifica":"Existente","Fonte":"Informações Técnicas TBG out15","categoria":5,"parent_id":39,"id":44,"nome_1":"Ponto de Entrega de Gás"}},
{"type":"Feature","geometry":{"type":"Point","coordinates":[-47.644732861999955,-23.49470335799998]},"properties":{"Nome":"PE Araçoiaba da Serra","Estado":"SP","Municipio":"Araçoiaba da Serra","Transporta":"TBG","Classifica":"Existente","Fonte":"Informações Técnicas TBG out15","categoria":5,"parent_id":39,"id":44,"nome_1":"Ponto de Entrega de Gás"}},
{"type":"Feature","geometry":{"type":"Point","coordinates":[-50.94536954299997,-29.66766695399997]},"properties":{"Nome":"PE Araricá","Estado":"RS","Municipio":"Araricá","Transporta":"TBG","Classifica":"Existente","Fonte":"Informações Técnicas TBG out15","categoria":5,"parent_id":39,"id":44,"nome_1":"Ponto de Entrega de Gás"}},
{"type":"Feature","geometry":{"type":"Point","coordinates":[-49.37130832599996,-25.55858984699995]},"properties":{"Nome":"PE Araucária CIC","Estado":"PR","Municipio":"Araucária","Transporta":"TBG","Classifica":"Existente","Fonte":"Informações Técnicas TBG out15","categoria":5,"parent_id":39,"id":44,"nome_1":"Ponto de Entrega de Gás"}},
{"type":"Feature","geometry":{"type":"Point","coordinates":[-50.45805340499993,-21.380160745999945]},"properties":{"Nome":"PE Bilac","Estado":"SP","Municipio":"Bilac","Transporta":"TBG","Classifica":"Existente","Fonte":"Informações Técnicas TBG out15","categoria":5,"parent_id":39,"id":44,"nome_1":"Ponto de Entrega de Gás"}},
{"type":"Feature","geometry":{"type":"Point","coordinates":[-48.98433215699998,-26.903411785999936]},"properties":{"Nome":"PE Blumenau Gaspar","Estado":"SC","Municipio":"Gaspar","Transporta":"TBG","Classifica":"Existente","Fonte":"Informações Técnicas TBG out15","categoria":5,"parent_id":39,"id":44,"nome_1":"Ponto de Entrega de Gás"}},
{"type":"Feature","geometry":{"type":"Point","coordinates":[-48.31518866899995,-21.915552584999944]},"properties":{"Nome":"PE Boa Esperança do Sul","Estado":"SP","Municipio":"Boa Esperança do Sul","Transporta":"TBG","Classifica":"Existente","Fonte":"Informações Técnicas TBG out15","categoria":5,"parent_id":39,"id":44,"nome_1":"Ponto de Entrega de Gás"}},
{"type":"Feature","geometry":{"type":"Point","coordinates":[-48.87214021699998,-27.036937982999973]},"properties":{"Nome":"PE Brusque","Estado":"SC","Municipio":"Brusque","Transporta":"TBG","Classifica":"Existente","Fonte":"Informações Técnicas TBG out15","categoria":5,"parent_id":39,"id":44,"nome_1":"Ponto de Entrega de Gás"}},
{"type":"Feature","geometry":{"type":"Point","coordinates":[-51.094210947999954,-29.872751051999956]},"properties":{"Nome":"PE Cachoeirinha","Estado":"RS","Municipio":"Cachoeirinha","Transporta":"TBG","Classifica":"Existente","Fonte":"Informações Técnicas TBG out15","categoria":5,"parent_id":39,"id":44,"nome_1":"Ponto de Entrega de Gás"}},
{"type":"Feature","geometry":{"type":"Point","coordinates":[-47.175844697999935,-22.942366232999973]},"properties":{"Nome":"PE Campinas","Estado":"SP","Municipio":"Campinas","Transporta":"TBG","Classifica":"Existente","Fonte":"Informações Técnicas TBG out15","categoria":5,"parent_id":39,"id":44,"nome_1":"Ponto de Entrega de Gás"}},
{"type":"Feature","geometry":{"type":"Point","coordinates":[-54.742923420999944,-20.609322728999928]},"properties":{"Nome":"PE Campo Grande","Estado":"MS","Municipio":"Campo Grande","Transporta":"TBG","Classifica":"Existente","Fonte":"Informações Técnicas TBG out15","categoria":5,"parent_id":39,"id":44,"nome_1":"Ponto de Entrega de Gás"}},
{"type":"Feature","geometry":{"type":"Point","coordinates":[-49.43460815099996,-25.43423459299993]},"properties":{"Nome":"PE Campo Largo","Estado":"PR","Municipio":"Campo Largo","Transporta":"TBG","Classifica":"Existente","Fonte":"Informações Técnicas TBG out15","categoria":5,"parent_id":39,"id":44,"nome_1":"Ponto de Entrega de Gás"}},
{"type":"Feature","geometry":{"type":"Point","coordinates":[-51.14699628499994,-29.876366875999963]},"properties":{"Nome":"PE Canoas","Estado":"RS","Municipio":"Canoas","Transporta":"TBG","Classifica":"Existente","Fonte":"Informações Técnicas TBG out15","categoria":5,"parent_id":39,"id":44,"nome_1":"Ponto de Entrega de Gás"}},
{"type":"Feature","geometry":{"type":"Point","coordinates":[-57.627987290999954,-19.287412881999956]},"properties":{"Nome":"PE Corumbá","Estado":"MS","Municipio":"Corumbá","Transporta":"TBG","Classifica":"Existente","Fonte":"Informações Técnicas TBG out15","categoria":5,"parent_id":39,"id":44,"nome_1":"Ponto de Entrega de Gás"}},
{"type":"Feature","geometry":{"type":"Point","coordinates":[-47.128866398999946,-22.754293564999955]},"properties":{"Nome":"PE Gemini","Estado":"SP","Municipio":"Paulínia","Transporta":"TBG","Classifica":"Existente","Fonte":"Informações Técnicas TBG out15","categoria":5,"parent_id":39,"id":44,"nome_1":"Ponto de Entrega de Gás"}},
{"type":"Feature","geometry":{"type":"Point","coordinates":[-49.78419954499998,-21.60778268399997]},"properties":{"Nome":"PE Guaiçara","Estado":"SP","Municipio":"Guaiçara","Transporta":"TBG","Classifica":"Existente","Fonte":"Informações Técnicas TBG out15","categoria":5,"parent_id":39,"id":44,"nome_1":"Ponto de Entrega de Gás"}},
{"type":"Feature","geometry":{"type":"Point","coordinates":[-48.945005153999944,-26.462365296999963]},"properties":{"Nome":"PE Guaramirim","Estado":"SC","Municipio":"Guaramirim","Transporta":"TBG","Classifica":"Existente","Fonte":"Informações Técnicas TBG out15","categoria":5,"parent_id":39,"id":44,"nome_1":"Ponto de Entrega de Gás"}},
{"type":"Feature","geometry":{"type":"Point","coordinates":[-46.110230970999964,-23.389659412999947]},"properties":{"Nome":"PE Guararema","Estado":"SP","Municipio":"Guararema","Transporta":"TBG","Classifica":"Existente","Fonte":"Informações Técnicas TBG out15","categoria":5,"parent_id":39,"id":44,"nome_1":"Ponto de Entrega de Gás"}},
{"type":"Feature","geometry":{"type":"Point","coordinates":[-49.02329919799996,-21.816661170999964]},"properties":{"Nome":"PE Iacanga","Estado":"SP","Municipio":"Iacanga","Transporta":"TBG","Classifica":"Existente","Fonte":"Informações Técnicas TBG out15","categoria":5,"parent_id":39,"id":44,"nome_1":"Ponto de Entrega de Gás"}},
{"type":"Feature","geometry":{"type":"Point","coordinates":[-48.834815350999975,-21.814712509999936]},"properties":{"Nome":"PE Ibitinga","Estado":"SP","Municipio":"Ibitinga","Transporta":"TBG","Classifica":"Existente","Fonte":"Informações Técnicas TBG out15","categoria":5,"parent_id":39,"id":44,"nome_1":"Ponto de Entrega de Gás"}},
{"type":"Feature","geometry":{"type":"Point","coordinates":[-50.80035429999998,-29.602714274999983]},"properties":{"Nome":"PE Igrejinha","Estado":"RS","Municipio":"Igrejinha","Transporta":"TBG","Classifica":"Existente","Fonte":"Informações Técnicas TBG out15","categoria":5,"parent_id":39,"id":44,"nome_1":"Ponto de Entrega de Gás"}},
{"type":"Feature","geometry":{"type":"Point","coordinates":[-47.28284394099995,-23.096910779999973]},"properties":{"Nome":"PE Indaiatuba","Estado":"SP","Municipio":"Indaiatuba","Transporta":"TBG","Classifica":"Existente","Fonte":"Informações Técnicas TBG out15","categoria":5,"parent_id":39,"id":44,"nome_1":"Ponto de Entrega de Gás"}},
{"type":"Feature","geometry":{"type":"Point","coordinates":[-48.063730662999944,-23.70248369899997]},"properties":{"Nome":"PE Itapetininga","Estado":"SP","Municipio":"Itapetininga","Transporta":"TBG","Classifica":"Existente","Fonte":"Informações Técnicas TBG out15","categoria":5,"parent_id":39,"id":44,"nome_1":"Ponto de Entrega de Gás"}},
{"type":"Feature","geometry":{"type":"Point","coordinates":[-46.774394118999965,-22.97646343499997]},"properties":{"Nome":"PE Itatiba","Estado":"SP","Municipio":"Itatiba","Transporta":"TBG","Classifica":"Existente","Fonte":"Informações Técnicas TBG out15","categoria":5,"parent_id":39,"id":44,"nome_1":"Ponto de Entrega de Gás"}},
{"type":"Feature","geometry":{"type":"Point","coordinates":[-47.77109699999994,-22.21988699999997]},"properties":{"Nome":"PE Itirapina","Estado":"SP","Municipio":"Itirapina","Transporta":"TBG","Classifica":"Existente","Fonte":"Informações Técnicas TBG out15","categoria":5,"parent_id":39,"id":44,"nome_1":"Ponto de Entrega de Gás"}},
{"type":"Feature","geometry":{"type":"Point","coordinates":[-47.378751755999986,-23.238935175999927]},"properties":{"Nome":"PE Itu","Estado":"SP","Municipio":"Itu","Transporta":"TBG","Classifica":"Existente","Fonte":"Informações Técnicas TBG out15","categoria":5,"parent_id":39,"id":44,"nome_1":"Ponto de Entrega de Gás"}},
{"type":"Feature","geometry":{"type":"Point","coordinates":[-47.06859950499995,-22.76541364999997]},"properties":{"Nome":"PE Jaguariúna","Estado":"SP","Municipio":"Jaguariúna","Transporta":"TBG","Classifica":"Existente","Fonte":"Informações Técnicas TBG out15","categoria":5,"parent_id":39,"id":44,"nome_1":"Ponto de Entrega de Gás"}},
{"type":"Feature","geometry":{"type":"Point","coordinates":[-48.89281993399993,-26.22497350699996]},"properties":{"Nome":"PE Joinville","Estado":"SC","Municipio":"Joinville","Transporta":"TBG","Classifica":"Existente","Fonte":"Informações Técnicas TBG out15","categoria":5,"parent_id":39,"id":44,"nome_1":"Ponto de Entrega de Gás"}},
{"type":"Feature","geometry":{"type":"Point","coordinates":[-47.47538833899995,-22.604931360999956]},"properties":{"Nome":"PE Limeira","Estado":"SP","Municipio":"Limeira","Transporta":"TBG","Classifica":"Existente","Fonte":"Informações Técnicas TBG out15","categoria":5,"parent_id":39,"id":44,"nome_1":"Ponto de Entrega de Gás"}},
{"type":"Feature","geometry":{"type":"Point","coordinates":[-49.49173129999997,-28.64650075399993]},"properties":{"Nome":"PE Nova Veneza","Estado":"SC","Municipio":"Nova Veneza","Transporta":"TBG","Classifica":"Existente","Fonte":"Informações Técnicas TBG out15","categoria":5,"parent_id":39,"id":44,"nome_1":"Ponto de Entrega de Gás"}},
{"type":"Feature","geometry":{"type":"Point","coordinates":[-47.481059684999934,-23.341566372999978]},"properties":{"Nome":"PE Porto Feliz","Estado":"SP","Municipio":"Porto Feliz","Transporta":"TBG","Classifica":"Existente","Fonte":"Informações Técnicas TBG out15","categoria":5,"parent_id":39,"id":44,"nome_1":"Ponto de Entrega de Gás"}},
{"type":"Feature","geometry":{"type":"Point","coordinates":[-51.147286185999974,-29.87633045399997]},"properties":{"Nome":"PE REFAP","Estado":"RS","Municipio":"Canoas","Transporta":"TBG","Classifica":"Existente","Fonte":"Informações Técnicas TBG out15","categoria":5,"parent_id":39,"id":44,"nome_1":"Ponto de Entrega de Gás"}},
{"type":"Feature","geometry":{"type":"Point","coordinates":[-49.37316211899997,-25.57600402199995]},"properties":{"Nome":"PE REPAR","Estado":"PR","Municipio":"Araucária","Transporta":"TBG","Classifica":"Existente","Fonte":"Informações Técnicas TBG out15","categoria":5,"parent_id":39,"id":44,"nome_1":"Ponto de Entrega de Gás"}},
{"type":"Feature","geometry":{"type":"Point","coordinates":[-47.13353244499996,-22.71988560099993]},"properties":{"Nome":"PE REPLAN","Estado":"SP","Municipio":"Paulínia","Transporta":"TBG","Classifica":"Existente","Fonte":"Informações Técnicas TBG out15","categoria":5,"parent_id":39,"id":44,"nome_1":"Ponto de Entrega de Gás"}},
{"type":"Feature","geometry":{"type":"Point","coordinates":[-47.580110386999934,-22.47497724899995]},"properties":{"Nome":"PE Rio Claro","Estado":"SP","Municipio":"Rio Claro","Transporta":"TBG","Classifica":"Existente","Fonte":"Informações Técnicas TBG out15","categoria":5,"parent_id":39,"id":44,"nome_1":"Ponto de Entrega de Gás"}},
{"type":"Feature","geometry":{"type":"Point","coordinates":[-47.878126461999955,-22.11034888399996]},"properties":{"Nome":"PE São Carlos","Estado":"SP","Municipio":"São Carlos","Transporta":"TBG","Classifica":"Existente","Fonte":"Informações Técnicas TBG out15","categoria":5,"parent_id":39,"id":44,"nome_1":"Ponto de Entrega de Gás"}},
{"type":"Feature","geometry":{"type":"Point","coordinates":[-48.749466353999935,-27.574449903999948]},"properties":{"Nome":"PE São Pedro de Alcântara","Estado":"SC","Municipio":"São Pedro de Alcântara","Transporta":"TBG","Classifica":"Existente","Fonte":"Informações Técnicas TBG out15","categoria":5,"parent_id":39,"id":44,"nome_1":"Ponto de Entrega de Gás"}},
{"type":"Feature","geometry":{"type":"Point","coordinates":[-47.130781627999966,-22.848644157999956]},"properties":{"Nome":"PE Sumaré","Estado":"SP","Municipio":"Sumaré","Transporta":"TBG","Classifica":"Existente","Fonte":"Informações Técnicas TBG out15","categoria":5,"parent_id":39,"id":44,"nome_1":"Ponto de Entrega de Gás"}},
{"type":"Feature","geometry":{"type":"Point","coordinates":[-48.709870653999985,-27.259398362999946]},"properties":{"Nome":"PE Tijucas","Estado":"SC","Municipio":"Tijucas","Transporta":"TBG","Classifica":"Existente","Fonte":"Informações Técnicas TBG out15","categoria":5,"parent_id":39,"id":44,"nome_1":"Ponto de Entrega de Gás"}},
{"type":"Feature","geometry":{"type":"Point","coordinates":[-51.84073380899997,-20.96006184999993]},"properties":{"Nome":"PE Três Lagoas UFNIII","Estado":"MS","Municipio":"Três Lagoas","Transporta":"TBG","Classifica":"Existente","Fonte":"Informações Técnicas TBG out15","categoria":5,"parent_id":39,"id":44,"nome_1":"Ponto de Entrega de Gás"}},
{"type":"Feature","geometry":{"type":"Point","coordinates":[-49.075019571999974,-28.439270189999945]},"properties":{"Nome":"PE Tubarão","Estado":"SC","Municipio":"Tubarão","Transporta":"TBG","Classifica":"Existente","Fonte":"Informações Técnicas TBG out15","categoria":5,"parent_id":39,"id":44,"nome_1":"Ponto de Entrega de Gás"}},
{"type":"Feature","geometry":{"type":"Point","coordinates":[-49.40253431499997,-28.60519341099996]},"properties":{"Nome":"PE Urussanga","Estado":"SC","Municipio":"Urussanga","Transporta":"TBG","Classifica":"Existente","Fonte":"Informações Técnicas TBG out15","categoria":5,"parent_id":39,"id":44,"nome_1":"Ponto de Entrega de Gás"}},
{"type":"Feature","geometry":{"type":"Point","coordinates":[-49.37276963399995,-25.577055942999948]},"properties":{"Nome":"PE UTE Araucária","Estado":"PR","Municipio":"Araucária","Transporta":"TBG","Classifica":"Existente","Fonte":"Informações Técnicas TBG out15","categoria":5,"parent_id":39,"id":44,"nome_1":"Ponto de Entrega de Gás"}},
{"type":"Feature","geometry":{"type":"Point","coordinates":[-51.14705809999998,-29.87615021299996]},"properties":{"Nome":"PE UTE Canoas","Estado":"RS","Municipio":"Canoas","Transporta":"TBG","Classifica":"Existente","Fonte":"Informações Técnicas TBG out15","categoria":5,"parent_id":39,"id":44,"nome_1":"Ponto de Entrega de Gás"}},
{"type":"Feature","geometry":{"type":"Point","coordinates":[-51.84073380899997,-20.96006184999993]},"properties":{"Nome":"PE UTE Três Lagoas","Estado":"MS","Municipio":"Três Lagoas","Transporta":"TBG","Classifica":"Existente","Fonte":"Informações Técnicas TBG out15","categoria":5,"parent_id":39,"id":44,"nome_1":"Ponto de Entrega de Gás"}},
{"type":"Feature","geometry":{"type":"Point","coordinates":[-50.899860657999966,-21.282982181999955]},"properties":{"Nome":"PE Valparaíso","Estado":"SP","Municipio":"Valparaíso","Transporta":"TBG","Classifica":"Existente","Fonte":"Informações Técnicas TBG out15","categoria":5,"parent_id":39,"id":44,"nome_1":"Ponto de Entrega de Gás"}},
{"type":"Feature","geometry":{"type":"Point","coordinates":[-50.470789829999944,-29.216604699999948]},"properties":{"Nome":"PE Várzea do Cedro","Estado":"RS","Municipio":"Várzea do Cedro","Transporta":"TBG","Classifica":"Existente","Fonte":"Informações Técnicas TBG out15","categoria":5,"parent_id":39,"id":44,"nome_1":"Ponto de Entrega de Gás"}},
{"type":"Feature","geometry":{"type":"Point","coordinates":[-51.38557765499996,-29.898501314999976]},"properties":{"Nome":"PE Triunfo","Estado":"RS","Municipio":"Triunfo","Transporta":"TSB","Classifica":"Existente","Fonte":"Informações Técnicas TSB","categoria":5,"parent_id":39,"id":44,"nome_1":"Ponto de Entrega de Gás"}},
{"type":"Feature","geometry":{"type":"Point","coordinates":[-56.99986546499997,-29.811975390999976]},"properties":{"Nome":"PE UTE Uruguaiana","Estado":"RS","Municipio":"Uruguaiana","Transporta":"TSB","Classifica":"Existente","Fonte":"Informações Técnicas TSB","categoria":5,"parent_id":39,"id":44,"nome_1":"Ponto de Entrega de Gás"}}
]}