{"type":"FeatureCollection", "features": [
{"type":"Feature","geometry":{"type":"Point","coordinates":[-37.065483590999975,-10.999732680999955]},"properties":{"Nome":"Atalaia","Municipio":"Aracaju","UF":"SE","Proprietar":"PETROBRAS","Classifica":"Existente","Entrada":1981,"Fonte":"Boletim Mensal de Acompanhamento da Indústria de Gás Natural julho 2020","MMm3d":"3","id":51,"categoria":5,"parent_id":39,"name":"Unidade de Processamento de Gás Natural"}},
{"type":"Feature","geometry":{"type":"Point","coordinates":[-41.71975922299998,-22.285409587999936]},"properties":{"Nome":"Cabiúnas","Municipio":"Macaé","UF":"RJ","Proprietar":"PETROBRAS","Classifica":"Existente","Entrada":2017,"Fonte":"Boletim Mensal de Acompanhamento da Indústria de Gás Natural julho 2020","MMm3d":"17.2","id":51,"categoria":5,"parent_id":39,"name":"Unidade de Processamento de Gás Natural"}},
{"type":"Feature","geometry":{"type":"Point","coordinates":[-39.75948860799997,-19.45999087499996]},"properties":{"Nome":"Cacimbas","Municipio":"Linhares","UF":"RJ","Proprietar":"PETROBRAS","Classifica":"Existente","Entrada":2010,"Fonte":"Boletim Mensal de Acompanhamento da Indústria de Gás Natural julho 2020","MMm3d":"16","id":51,"categoria":5,"parent_id":39,"name":"Unidade de Processamento de Gás Natural"}},
{"type":"Feature","geometry":{"type":"Point","coordinates":[-38.57067637999995,-12.667668360999926]},"properties":{"Nome":"Candeias","Municipio":"Candeias","UF":"BA","Proprietar":"PETROBRAS","Classifica":"Existente","Entrada":1972,"Fonte":"Boletim Mensal de Acompanhamento da Indústria de Gás Natural julho 2020","MMm3d":"2.9","id":51,"categoria":5,"parent_id":39,"name":"Unidade de Processamento de Gás Natural"}},
{"type":"Feature","geometry":{"type":"Point","coordinates":[-45.49922639099998,-23.653498044999935]},"properties":{"Nome":"Caraguatatuba","Municipio":"Caraguatatuba","UF":"SP","Proprietar":"PETROBRAS","Classifica":"Existente","Entrada":2016,"Fonte":"Boletim Mensal de Acompanhamento da Indústria de Gás Natural julho 2020","MMm3d":"20","id":51,"categoria":5,"parent_id":39,"name":"Unidade de Processamento de Gás Natural"}},
{"type":"Feature","geometry":{"type":"Point","coordinates":[-38.343441833999975,-12.394217487999981]},"properties":{"Nome":"Santiago","Municipio":"Pojuca","UF":"BA","Proprietar":"PETROBRAS","Classifica":"Existente","Entrada":1962,"Fonte":"Boletim Mensal de Acompanhamento da Indústria de Gás Natural julho 2020","MMm3d":"1.9","id":51,"categoria":5,"parent_id":39,"name":"Unidade de Processamento de Gás Natural"}},
{"type":"Feature","geometry":{"type":"Point","coordinates":[-38.56450777499998,-12.661222158999976]},"properties":{"Nome":"Estação Vandemir Ferreira","Municipio":"São Francisco do Conde","UF":"BA","Proprietar":"PETROBRAS","Classifica":"Existente","Entrada":2007,"Fonte":"Boletim Mensal de Acompanhamento da Indústria de Gás Natural julho 2020","MMm3d":"6","id":51,"categoria":5,"parent_id":39,"name":"Unidade de Processamento de Gás Natural"}},
{"type":"Feature","geometry":{"type":"Point","coordinates":[-36.380001128999936,-5.1381911089999335]},"properties":{"Nome":"Guamaré","Municipio":"Guamaré","UF":"RN","Proprietar":"PETROBRAS","Classifica":"Existente","Entrada":1985,"Fonte":"Boletim Mensal de Acompanhamento da Indústria de Gás Natural julho 2020","MMm3d":"5.7","id":51,"categoria":5,"parent_id":39,"name":"Unidade de Processamento de Gás Natural"}},
{"type":"Feature","geometry":{"type":"Point","coordinates":[-38.47226035299997,-3.7164177739999786]},"properties":{"Nome":"LUBNOR","Municipio":"Fortaleza","UF":"CE","Proprietar":"PETROBRAS","Classifica":"Existente","Entrada":1987,"Fonte":"Boletim Mensal de Acompanhamento da Indústria de Gás Natural julho 2020","MMm3d":"0.3","id":51,"categoria":5,"parent_id":39,"name":"Unidade de Processamento de Gás Natural"}},
{"type":"Feature","geometry":{"type":"Point","coordinates":[-35.904584419999935,-9.607693994999977]},"properties":{"Nome":"Alagoas","Municipio":"Pilar","UF":"AL","Proprietar":"PETROBRAS","Classifica":"Existente","Entrada":2003,"Fonte":"Boletim Mensal de Acompanhamento da Indústria de Gás Natural julho 2020","MMm3d":"1.8","id":51,"categoria":5,"parent_id":39,"name":"Unidade de Processamento de Gás Natural"}},
{"type":"Feature","geometry":{"type":"Point","coordinates":[-43.26770671899993,-22.71612953099998]},"properties":{"Nome":"REDUC","Municipio":"Duque de Caxias","UF":"RJ","Proprietar":"PETROBRAS","Classifica":"Existente","Entrada":1983,"Fonte":"Boletim Mensal de Acompanhamento da Indústria de Gás Natural julho 2020","MMm3d":"4.5","id":51,"categoria":5,"parent_id":39,"name":"Unidade de Processamento de Gás Natural"}},
{"type":"Feature","geometry":{"type":"Point","coordinates":[-46.42441495799994,-23.867445069999974]},"properties":{"Nome":"RPBC","Municipio":"Cubatão","UF":"SP","Proprietar":"PETROBRAS","Classifica":"Existente","Entrada":1993,"Fonte":"Boletim Mensal de Acompanhamento da Indústria de Gás Natural julho 2020","MMm3d":"2.3","id":51,"categoria":5,"parent_id":39,"name":"Unidade de Processamento de Gás Natural"}},
{"type":"Feature","geometry":{"type":"Point","coordinates":[-40.62096825599997,-20.791805213999965]},"properties":{"Nome":"Sul Capixaba","Municipio":"Anchieta","UF":"ES","Proprietar":"PETROBRAS","Classifica":"Existente","Entrada":2010,"Fonte":"Boletim Mensal de Acompanhamento da Indústria de Gás Natural julho 2020","MMm3d":"2.5","id":51,"categoria":5,"parent_id":39,"name":"Unidade de Processamento de Gás Natural"}},
{"type":"Feature","geometry":{"type":"Point","coordinates":[-65.29830569999996,-4.866609059999973]},"properties":{"Nome":"Urucu","Municipio":"Coari","UF":"AM","Proprietar":"PETROBRAS","Classifica":"Existente","Entrada":1993,"Fonte":"Boletim Mensal de Acompanhamento da Indústria de Gás Natural julho 2020","MMm3d":"12.2","id":51,"categoria":5,"parent_id":39,"name":"Unidade de Processamento de Gás Natural"}},
{"type":"Feature","geometry":{"type":"Point","coordinates":[-44.450983819999976,-4.776824588999943]},"properties":{"Nome":"Maranhão","Municipio":"Santo Antônio dos Lopes","UF":"MA","Proprietar":"ENEVA","Classifica":"Existente","Entrada":2013,"Fonte":"Site ENEVA","MMm3d":"8.4","id":51,"categoria":5,"parent_id":39,"name":"Unidade de Processamento de Gás Natural"}},
{"type":"Feature","geometry":{"type":"Point","coordinates":[-38.55395786399998,-12.405387252999958]},"properties":{"Nome":"Caburé","Municipio":"Mata de São João","UF":"BA","Proprietar":"ALVOPETRO","Classifica":"Existente","Entrada":2020,"Fonte":"Site Alvopetro: apresentacao corporativa outubro 2020","MMm3d":"0.5","id":51,"categoria":5,"parent_id":39,"name":"Unidade de Processamento de Gás Natural"}}
]}